,Primary_Key,DC_Real_Property_ID,Property_Name,Reporting_Year,Report_Status,Address_of_Record,Owner_of_Record,Ward,City,State,Postal_Code,Year_Built,Primary_Property_Type_Self_Selected,Primary_Property_Type_EPA_Calculated,Tax_Record_Floor_Area,Recorded_Building_Gross_Floor_Area,Energy_Star_Score,Site_EUI_KBTU_Ft,Weather_Normalized_Site_EUI_KBTU_Ft,Source_EUI_KBTU_Ft,Weather_Normalized_Source_EUI_KBTU_Ft,Total_GHG_Emissions_Metric_Tons_CO2e,Total_GHG_Emissions_Intensity_Kg_CO2e_Ft,Water_Use_All_Water_Sources_Kgal,Electricity_Use_Grid_Kwh,Natural_Gas_Use_Therms,Latitude,Longitude,Unnamed: 28
1845,PM4697233,0070_0188,Ellington Building,2015,In Compliance,2121 WARD PL NW,ELLINGTON BUILDING LLC,2,Washington,DC,20037,1985,Office,Office,55474,55474.0,100,3.4,3.4,10.6,10.6,25.0,0.4,1170.0,54629.2,,38.90640816,-77.04757005,
1846,PM3644356,2132_0030,The Delano,2015,In Compliance,2745 29TH ST NW,DELANO LLC,3,Washington,DC,20008,1942,Multifamily Housing,Multifamily Housing,151582,98663.0,100,5.9,5.7,18.5,17.9,77.9,0.8,3157.3,170627.1,,38.92495375,-77.05713642,
1847,PM3999186,3379_0820,6031 Kansas Ave NW - Kansas Ave DG,2015,In Compliance,6031 KANSAS AVE NW,KANSAS AVENUE DEVELOPMENT GROUP LLC,4,Washington,DC,20011,1900,Non-Refrigerated Warehouse,Non-Refrigerated Warehouse,71562,71562.0,96,14.6,15.2,18.9,19.5,65.3,0.9,191.2,35855.9,9215.53197,38.963088,-77.00921154,
1848,PM4178732,0594_0069,Greenleaf Extension,2015,Data Under Review by DOEE,1124 3RD ST SW,DISTRICT OF COLUMBIA HOUSING AUTHORITY ,6,WASHINGTON,DC,20024,1965,Multifamily Housing,Multifamily Housing,,35992.0,100,12.4,12.5,20.2,20.0,30.8,0.9,780.2,35928.0,3247.000151,38.87675727,-77.01494602,
1849,PM3504818,PAR01730109,"Jemal's Premium, LLC",2015,In Compliance,3300 NEW YORK AV NE,JAMALS PREMIUM LLC,5,Washington,DC,20002,1959,Office,Office,75604,97158.0,100,7.9,7.9,24.8,24.8,102.9,1.1,41.9,225240.0,,38.91737257,-76.95976641,
1850,PM5047441,0914_0054,Capital East Apartment (518),2015,In Compliance,518 9TH ST NE,CAPITAL EAST PARTNERS LLC,6,Washington,DC,20002,1927,Multifamily Housing,Multifamily Housing,54781,54781.0,100,10.7,10.3,28.3,27.0,58.7,1.1,2574.8,130873.0,1403.900039,38.89671308,-76.99399083,
1851,PM3513025,2574_0831,Meridian Hill Hall,2015,In Compliance,2601 16TH ST NW,HOWARD UNIVERSITY,1,Washington,DC,20009,1942,Residence Hall-Dormitory,Residence Hall-Dormitory,183744,182516.0,100,10.1,10.1,31.3,31.3,243.6,1.3,3244.3,529499.9,326.200002,38.92362583,-77.03588045,
1852,PM2929580,0619_0176,Tyler House Associates 95 LP,2015,In Compliance,1200 NORTH CAPITOL ST NW,TYLER HOUSE ASSOCIATES 95 L.P.,6,Washington,DC,20002,1969,Multifamily Housing,Multifamily Housing,325984,325984.0,100,10.1,10.1,31.8,31.8,442.5,1.4,14532.7,968875.7,,38.90640315,-77.00943607,
1853,PM3663542,3377E_0807,0662-Washington DC - Blair RD. N.w.,2015,In Compliance,6011 BLAIR RD NW,BLAIR STORAGE LLC,4,Washington,DC,20011,1990,Non-Refrigerated Warehouse,Non-Refrigerated Warehouse,51000,99564.0,73,13.9,14.1,35.4,35.6,153.4,1.5,37.0,289807.0,3952.9999700000003,38.96321585,-77.01095087,
1854,PM5047406,0914_0055,Capital East Apartment,2015,In Compliance,816 E ST NE,CAPITAL EAST PARTNERS LLC,6,Washington,DC,20002,1927,Multifamily Housing,Multifamily Housing,55178,55178.0,100,13.7,13.0,36.9,34.9,74.5,1.4,2423.7,174918.0,1565.1999859999999,38.8964305,-76.99412723,
1855,PM3663625,0205_0058,"0776-Washington - U Street, NW",2015,In Compliance,1420 U ST NW,STORAGE PORTFOLIO LLC,2,Washington,DC,20009,1910,Non-Refrigerated Warehouse,Non-Refrigerated Warehouse,189805,101989.0,41,11.9,11.9,37.5,37.5,163.1,1.6,221.0,357172.0,,38.91662939,-77.0329301,
1856,PM3987174,0453_0052,Wah Luck House,2015,In Compliance,800 6TH ST NW,WASHINGTON CHINATOWN DEVELOPMENT COMPANY,2,Washington,DC,20001,1982,Multifamily Housing,Multifamily Housing,149161,89000.0,100,20.0,20.0,40.5,40.5,161.6,1.8,7821.8,243680.0,9464.000320000001,38.90023619,-77.02019168,
1857,PM3513627,0189_0060,Northumberland Apartments Inc,2015,In Compliance,2039 NEW HAMPSHIRE AVE NW,NORTHUMBERLAND APARTMENTS INC,1,Washington,DC,20009,1909,Multifamily Housing,Multifamily Housing,104390,104390.0,100,20.1,20.3,40.8,41.0,172.2,1.6,2159.8,287933.6,11201.52447,38.9178766,-77.03537261,
1858,PM3504833,1769_0031,"Jemal's Tower, LLC",2015,In Compliance,4001 BRANDYWINE ST NW,JEMALS TOWER LLC,3,Washington,DC,20016,1952,Office,Office,157856,110485.0,100,13.8,13.8,43.5,43.5,204.8,1.9,1384.0,448404.7,,38.95000411,-77.07938138,
1859,PM4531936,0711_0810,Three Constitution Square,2015,In Compliance,175 N ST NE,CS OFFICE THREE LLC,6,Washington,DC,20002,2013,Office,Office,365801,381120.0,100,14.9,14.9,46.7,46.7,759.5,2.0,776.2,1662901.9,,38.90698946,-77.00377341,
1860,PM3513593,2571_0954,1661 Crescent Place NW Inc,2015,In Compliance,1661 CRESCENT PL NW,1661 CRESCENT PLACE NW INC,1,Washington,DC,20009,1927,Multifamily Housing,Multifamily Housing,118686,118686.0,100,40.2,42.4,47.1,49.2,275.6,2.3,1894.5,81368.1,44884.86943,38.92087925,-77.03824167,
1861,PM3986543,0156_0034,Cavanaugh Court,2015,In Compliance,1526 17TH ST NW,CAVANAUGH COURT OWNERS,2,Washington,DC,20036,1916,Multifamily Housing,Multifamily Housing,53765,50000.0,100,44.2,45.7,51.2,52.8,126.5,2.5,1722.9,33653.0,20927.70704,38.91063381,-77.03875939,
1862,PM4632545,3368_0822,MFS CHILLUM LLC,2015,In Compliance,6501 - 6527 CHILLUM PL NW,MFS CHILLUM LLC,4,Washington,DC,20012,1955,Non-Refrigerated Warehouse,Non-Refrigerated Warehouse,54228,160000.0,85,24.2,24.6,51.7,52.1,368.2,2.3,1332.9,589454.9,18631.40274,38.96889541,-77.01215391,
1863,PM4005338,2210_0007,Connecticut Plaza,2015,In Compliance,2331 CATHEDRAL AVE NW,CATHCONN ASSOCIATES LP,3,Washington,DC,20008,1926,Multifamily Housing,Multifamily Housing,54786,54786.0,100,22.8,22.9,54.1,54.3,130.1,2.4,943.7,231770.0,4570.842228,38.92821539,-77.05334522,
1864,PM4178742,5422_0017,Fort Dupont,2015,Data Under Review by DOEE,155 RIDGE RD SE,DISTRICT OF COLUMBIA HOUSING AUTHORITY ,7,WASHINGTON,DC,20019,1940,Multifamily Housing,Multifamily Housing,,231517.0,98,29.0,29.9,54.1,55.0,507.8,2.2,6882.8,767030.9,40947.99669,38.8860347,-76.94971264,
1865,PM3882212,2727_0801,The Rittenhouse,2015,In Compliance,6101 16TH ST NW,RITTENHOUSE APARTMENTS LLC,4,Washington,DC,20011,1957,Multifamily Housing,Multifamily Housing,390470,212464.0,99,32.2,32.7,56.3,56.8,503.8,2.4,15621.9,668926.1,45569.929130000004,38.96506923,-77.0353807,
1866,PM1420813,0101_0058,2000 Pennsylvania Avenue,2015,In Compliance,2000 - 2040 PENNSYLVANIA AV NW,GEORGE WASHINGTON UNIVERSITY,2,Washington,DC,20006,1983,Office,Office,480875,410760.0,100,21.9,21.7,57.3,56.8,1022.9,2.5,10433.6,1979109.8,22389.59765,38.90052243,-77.04575097,
1867,PM4903213,2530_0817,Westmoreland Cooperative,2015,In Compliance,2122 CALIFORNIA ST NW,WESTMORELAND COOPERATIVE,2,Washington,DC,20008,1905,Multifamily Housing,Multifamily Housing,84667,84667.0,100,38.6,35.8,57.4,52.8,215.7,2.5,1275.7,200688.8,25822.29604,38.91621785,-77.04744894,
1868,PM3984805,2210_0001,2301 Connecticut Plaza,2015,In Compliance,2301 CATHEDRAL AVE NW,CATHCONN ASSOCIATES LP,3,Washington,DC,20008,1923,Multifamily Housing,Multifamily Housing,51541,51541.0,100,27.6,27.8,59.2,59.5,135.8,2.6,1443.3,218971.0,6731.0234,38.92802568,-77.05293566,
1869,PM4005427,2210_0011,Connecticut Plaza,2015,In Compliance,2915 CONNECTICUT AVE NW,CATHCONN ASSOCIATES LP,3,Washington,DC,20008,1927,Multifamily Housing,Multifamily Housing,60596,60596.0,100,27.2,27.4,60.7,61.0,162.8,2.7,1374.2,273471.0,7126.399890000001,38.92867158,-77.05410384,
1870,PM4527762,3058_0834,Howard University College Hall North,2015,In Compliance,0654 GIRARD ST NW,HOWARD UNIVERSITY,1,Washington,DC,20001,1950,Residence Hall-Dormitory,Residence Hall-Dormitory,65892,138829.0,96,19.9,17.9,62.4,56.2,369.6,2.7,6629.2,809198.4,,38.92569701,-77.02220838,
1871,PM5780344,2660_0238,Milestone on Belmont,2015,In Compliance,1430 BELMONT ST NW,E & G DC CO-OP OWNER LLC,1,Washington,DC,20009,1928,Multifamily Housing,Multifamily Housing,51150,53425.0,99,20.2,20.7,63.3,64.8,123.6,2.3,4213.5,315900.6,,38.92036781,-77.03306225,
1872,PM3500299,2586_0813,Ontario Owners Inc.,2015,In Compliance,2853 ONTARIO RD NW,ONTARIO OWNERS INC,1,Washington,DC,20009,1905,Multifamily Housing,Multifamily Housing,198381,198381.0,99,47.9,50.4,63.8,65.9,608.0,3.1,4223.6,374874.0,82228.19907,38.92594557,-77.04207417,
1873,PM3984618,2210_0010,Connecticut Plaza,2015,In Compliance,2901 CONNECTICUT AVE NW,CATHCONN ASSOCIATES LP,3,Washington,DC,20008,1924,Multifamily Housing,Multifamily Housing,69329,69329.0,99,26.7,26.9,64.7,64.9,196.4,2.8,1322.7,355867.0,6380.85999,38.92838319,-77.05379292,
1874,PM3989484,0093_0146,Jemal's Dupont LLC,2015,In Compliance,1630 CONNECTICUT AVE NW,1630 CONNECTICUT LTD,2,Washington,DC,20009,1981,Office,Office,64517,73700.0,99,21.0,21.0,66.1,66.1,207.6,2.8,1106.2,454542.4,,38.91206182,-77.04524876,
1875,PM3417499,0210_0127,Latrobe (18001),2015,In Compliance,1325 15TH ST NW,RHODE ISLAND 15 LP,2,Washington,DC,20005,1980,Multifamily Housing,Multifamily Housing,175339,112000.0,100,29.5,29.5,66.3,66.3,328.2,2.9,3618.8,554099.9,14140.49167,38.90857249,-77.03426197,
1876,PM4019559,0178_0092,"Rutland Court Owners, Inc.",2015,In Compliance,1725 17TH ST NW,RUTLAND COURT OWNERS INC,2,Washington,DC,20009,1917,Multifamily Housing,Multifamily Housing,86244,86244.0,100,48.2,50.1,66.6,68.6,261.3,3.0,1690.1,192956.8,34987.4822,38.91356665,-77.03795017,
1877,PM4553078,5865_0286,CO/GLC 12234/2600 BARRY RD SE/WASHINGTON/DC,2015,In Compliance,2600 BARRY RD SE,VERIZON WASHINGTON DC INC,8,Washington,DC,20020,1975,Office,Office,54578,56854.0,100,31.1,31.4,67.1,66.4,169.5,3.0,256.0,273947.0,8354.000044,38.86194579,-77.00031372,
1878,PM3625086,2528_0302,2000 Connecticut,2015,In Compliance,2000 CONNECTICUT AVE NW,KS 2000 CONNECTICUT LLC,2,Washington,DC,20008,1936,Multifamily Housing,Multifamily Housing,128664,120000.0,98,33.9,34.3,67.9,68.2,365.7,3.0,4052.9,542005.9,22241.22523,38.91704087,-77.04716745,
1879,PM4371703,2868_0820,Clifton Terrace L P,2015,In Compliance,1312 - 1350 CLIFTON ST NW,CLIFTON TERRACE L P,1,Washington,DC,20009,1916,Multifamily Housing,Multifamily Housing,111224,111224.0,100,21.6,21.9,68.0,68.8,276.1,2.5,9850.9,705572.8,,38.92211165,-77.03081845,
1880,PM3518921,0700_0044,26830-Washington DC/S. Capitol St SE,2015,In Compliance,1230 SOUTH CAPITOL ST SE,PUBLIC STORAGE INSTITUTE FUND,6,Washington,DC,20003,1991,Non-Refrigerated Warehouse,Non-Refrigerated Warehouse,108000,89999.0,15,33.0,33.8,68.2,69.0,274.3,3.0,110.0,422628.9,15305.99769,38.8755571,-77.00857516,
1881,PM4387508,2667_0062,New Fairmont,2015,In Compliance,1401 FAIRMONT ST NW,NEW FAIRMONT L.P.,1,Washington,DC,20009,1913,Multifamily Housing,Multifamily Housing,89530,84000.0,98,21.8,22.0,68.6,69.0,210.4,2.5,2257.1,537598.9,,38.92478951,-77.03285395,
1882,PM3499886,2060_0031,The Sedgwick Gardens Apartments,2015,In Compliance,3726 CONNECTICUT AVE NW,DARO REALTY INC,3,Washington,DC,20008,1932,Multifamily Housing,Multifamily Housing,137808,144882.0,98,41.0,42.2,69.9,70.1,465.9,3.2,36504.4,546105.0,40761.49035,38.93900544,-77.06108578,
1883,PM3670808,2729_0006,Winchester Underwood Cooperative,2015,In Compliance,6445 LUZON AVE NW,THE WINCHESTER-UNDERWOOD COOPERATIVE INC,4,Washington,DC,20012,1960,Multifamily Housing,Multifamily Housing,138199,138199.0,94,39.4,40.2,71.4,71.1,449.4,3.3,4511.0,582069.9,34557.918110000006,38.96865795,-77.03382503,
1884,PM4018408,0031_0028,Western Presbyterian Church,2015,In Compliance,2401 VIRGINIA AVE NW,WESTERN PRESBYTERIAN CHURCH TRUSTEES,2,Washington,DC,20037,1993,Worship Facility,Worship Facility,52404,52404.0,70,22.9,21.8,71.8,68.6,160.4,3.1,910.7,351247.2,,38.89853884,-77.05196329,
1885,PM4007348,2586_0812,3025 Ontario Road INC,2015,In Compliance,3025 ONTARIO RD NW,3025 ONTARIO ROAD INC,1,Washington,DC,20009,1949,Multifamily Housing,Multifamily Housing,54862,54862.0,97,50.4,50.4,73.1,73.1,189.7,3.5,1189.6,155760.0,22313.64751,38.9260628,-77.04393453,
1886,PM4260438,1923_0054,Cathedral Court,2015,In Compliance,3701 MASSACHUSETTS AVE NW,DARO REALTY INC,3,Washington,DC,20016,1927,Multifamily Housing,Multifamily Housing,65792,71970.0,98,63.9,67.2,73.1,76.7,261.0,3.6,2696.1,61206.8,43883.33071,38.92934627,-77.07347207,
1887,PM4007712,2500_0088,2540 Massachusette Ave,2015,In Compliance,2540 MASSACHUSETTS AVE NW,2540 MASSACHUSETTS AVENUE NW INC,2,Washington,DC,20008,1923,Multifamily Housing,Multifamily Housing,83663,83663.0,88,50.7,53.3,73.2,75.9,289.9,3.5,1006.0,233870.8,34463.27326,38.91629509,-77.05685527,
1888,PM4007102,3698_0011,Chillum Manor - 1,2015,In Compliance,0011 - 0015 RIGGS RD NE,CHILLUM MANOR LLC,5,Washington,DC,20011,1942,Multifamily Housing,Multifamily Housing,51376,51376.0,95,49.8,52.0,73.4,75.1,177.8,3.5,1797.9,152027.9,20396.958130000003,38.95470903,-77.00818570000001,
1889,PM3499875,0028_0893,925 Apartments,2015,In Compliance,0925 25TH ST NW,925 LLC,2,Washington,DC,20037,1959,Multifamily Housing,Multifamily Housing,126522,126522.0,99,24.6,24.0,73.6,71.6,398.7,3.2,6393.3,846599.1,2259.8167489999996,38.9014431,-77.05305128,
1890,PM3075573,2608_1026,The Parkhill,2015,In Compliance,1610 PARK RD NW,BUZ PARTNERSHIP,1,Washington,DC,20010,1941,Multifamily Housing,Multifamily Housing,102238,122458.0,98,46.8,47.7,74.3,74.3,423.3,3.5,3914.7,431496.5,42591.99916,38.93179702,-77.03725646,
1891,PM3468516,4359_0834,4359-0834,2015,In Compliance,2800 V ST NE,2800 V STREET LIMITED PARTNERSHIP,5,Washington,DC,20018,1956,Non-Refrigerated Warehouse,Non-Refrigerated Warehouse,267683,242810.0,71,32.4,32.9,75.1,75.6,803.5,3.3,197.5,1398721.8,30999.89771,38.92002084,-76.96901156,
1892,PM4007384,5627_0093,HILLSIDE TERRACE LLC,2015,In Compliance,1806 - 1820 23RD ST SE,HILLSIDE TERRACE LLC,8,Washington,DC,20020,1943,Multifamily Housing,Multifamily Housing,52127,52127.0,88,25.3,25.3,75.6,75.6,168.7,3.2,685.1,358050.2,980.025166,38.8678309,-76.97276331,
1893,PM3993734,0070_0196,The Bond,2015,In Compliance,1230 NEW HAMPSHIRE AV,1230 NEW HAMPSHIRE LLC,2,Washington,DC,20036,1966,Multifamily Housing,Multifamily Housing,104286,165495.0,85,28.2,28.6,75.9,76.4,544.1,3.3,1930.5,1075695.7,9939.062369,38.90614063,-77.04710098,
1894,PM2802906,1805_0800,The Westchester,2015,In Compliance,4000 CATHEDRAL AV NW,WESTCHESTER CORPORATION,3,Washington,DC,20016,1930,Multifamily Housing,Multifamily Housing,334433,989860.0,92,51.1,53.4,76.1,77.8,3544.6,3.6,11995.7,3117265.6,399278.0346,38.92843605,-77.07790915,
1895,PM4007106,3698_0012,Chillum Manor - 2,2015,In Compliance,0017 - 0023 RIGGS RD NE,CHILLUM MANOR LLC,5,Washington,DC,20011,1942,Multifamily Housing,Multifamily Housing,60776,60776.0,93,54.9,57.2,76.9,78.8,222.5,3.7,2982.2,164416.8,27756.8004,38.95484798,-77.0075955,
1896,PM3072203,2677_0811,The Yorkshire,2015,In Compliance,3355 16TH ST NW,EDWARD J LENKIN,1,Washington,DC,20010,1942,Multifamily Housing,Multifamily Housing,75717,76772.0,98,56.0,56.7,80.7,80.1,293.5,3.8,2936.3,235827.3,34972.34113,38.93288831,-77.0360392,
1897,PM4367528,4263_0006,1818 New York Ave.,2015,In Compliance,1818 NEW YORK AVE NE,SANG KWONCHIO,5,Washington,DC,20002,1934,Office,Office,89079,90000.0,99,29.0,29.3,80.9,81.2,314.1,3.5,1007.9,636264.0,4422.778217,38.91772298,-76.97669835,
1898,PM3916525,2038_4003,Saratoga,2015,In Compliance,4601 CONNECTICUT AVENUE NW,CondoMain 4003,3,Washington,DC,20008,1989,Multifamily Housing,Multifamily Housing,534424,164690.0,99,25.8,25.8,81.1,81.1,569.6,3.5,6613.3,1247150.3,,38.94992174,-77.0662725,
1899,PM3998710,3831_0047,Brookland Artspace Lofts,2015,In Compliance,3305 8TH ST NE,BROOKLAND ARTSPACE LOFTS LLC,5,Washington,DC,20017,2011,Multifamily Housing,Multifamily Housing,55328,55328.0,90,34.3,34.7,81.5,81.8,198.0,3.6,5533.6,352444.0,6969.00007,38.93071679999999,-76.99474974,
1900,PM4528208,1264E_0029,The Georgetown,2015,In Compliance,2512 Q ST NW,2512 ASSOCIATES,2,Washington,DC,20007,1924,Multifamily Housing,Multifamily Housing,82286,82286.0,87,46.9,48.7,82.0,83.8,309.0,3.8,811.4,377799.2,25692.10676,38.91033710000001,-77.05332709999999,
1901,PM4007053,4396_0153,Parkway Plaza - 2,2015,In Compliance,1811 - 1831 24TH ST NE,PARKWAY PLAZA ASSOCIATES,5,Washington,DC,20002,1964,Multifamily Housing,Multifamily Housing,62904,62901.0,90,41.7,41.9,83.3,83.2,235.2,3.7,3911.4,347968.0,14367.340830000001,38.91478572,-76.97038298,
1902,PM3503353,1869_0036,La Reine Apartments,2015,In Compliance,5425 CONNECTICUT AVE NW,INVESTORS CONNECTICUT AVENUE LLC,3,Washington,DC,20015,1929,Multifamily Housing,Multifamily Housing,100044,100044.0,94,57.4,60.3,84.1,86.5,397.2,4.0,2559.8,334647.8,46002.740560000006,38.96228105,-77.07370034,
1903,PM4556577,3531_0116,St. Martin's Apartments LP,2015,In Compliance,116 T ST NE,ST MARTINS APARTMENTS LP,5,Washington,DC,20002,2010,Multifamily Housing,Multifamily Housing,240940,280000.0,85,36.7,36.5,84.1,83.1,1039.0,3.7,7577.6,1789289.7,41741.80068,38.91576136,-77.00531727,
1904,PM3502126,2226_0800,The Broadmoor Cooperative Apartments,2015,In Compliance,3601 CONNECTICUT AVE NW,BROADMOOR COOPERATIVE,3,Washington,DC,20008,1930,Multifamily Housing,Multifamily Housing,308077,288969.0,97,53.1,54.0,84.3,84.2,1134.2,3.9,5366.6,1158298.9,113936.2739,38.93794269,-77.05834316,
1905,PM3542092,2572_0815,Dorchester House Apartments,2015,In Compliance,2480 16TH ST NW,DORCHESTER HOUSE ASSOCIATES LLC,1,Washington,DC,20009,1941,Multifamily Housing,Multifamily Housing,439502,439502.0,90,43.8,43.7,85.1,83.5,1685.7,3.8,13946.6,2409211.6,110186.1643,38.92303223,-77.03739409,
1906,PM3997985,PAR00890021,Winchester-Luzon,2015,In Compliance,6601 14TH ST NW,LUZON ASSOCIATES LP,4,Washington,DC,20012,1942,Multifamily Housing,Multifamily Housing,90400,90400.0,95,44.8,46.3,85.5,87.0,349.6,3.9,4824.8,487632.9,23887.47148,38.97060935,-77.03303462,
1907,PM4005350,2528_0891,The William Penn Apartments,2015,In Compliance,2231 CALIFORNIA ST NW,WILLIAM PENNSYLVANIA LTD,2,Washington,DC,20008,1943,Multifamily Housing,Multifamily Housing,65514,65514.0,92,52.8,53.2,87.6,86.9,265.0,4.0,1835296.2,295533.2,24486.3348,38.91594385,-77.05016009999999,
1908,PM3515226,0245_0843,1301 Thomas Circle,2015,In Compliance,1301 M ST NW,CIRCLE PROPERTY CORPORTATION,2,Washington,DC,20005,2008,Multifamily Housing,Multifamily Housing,343585,339406.0,91,29.2,29.4,88.0,88.1,1278.9,3.8,6366.0,2728655.7,6137.000365999999,38.90623425,-77.02990069,
1909,PM3990214,PAR00880334,Jennifer,2015,In Compliance,1415 TUCKERMAN ST NW,MCDANIELS INVESTMENT CORP,4,Washington,DC,20011,1948,Multifamily Housing,Multifamily Housing,69228,55555.0,90,75.4,79.3,88.3,92.5,242.1,4.4,3124.7,70985.8,39477.16139,38.96775391,-77.03435677,
1910,PM3256982,2108_0040,Hampton House,2015,In Compliance,2700 CONNECTICUT AVE NW,2700 CONECTICUT AVENUE LLC,3,Washington,DC,20008,1921,Multifamily Housing,Multifamily Housing,91304,83580.0,95,54.8,55.4,88.4,87.8,342.9,4.1,2835.1,362324.0,33401.20007,38.92597194,-77.05337582,
1911,PM3974484,0157_0107,1734 P Street NW,2015,In Compliance,1734 P ST NW,AVONDALE COOPERATIVE APARTMENTS INC,2,Washington,DC,20036,1914,Multifamily Housing,Multifamily Housing,59544,59544.0,85,60.9,62.3,88.5,88.3,249.0,4.2,397.9,204267.0,29321.90919,38.90934873,-77.03995422,
1912,PM4006488,4395_0816,Parkway Plaza - 1,2015,In Compliance,1810 - 1826 24TH ST NE,MAURICE LIPNICK,5,Washington,DC,20002,1964,Multifamily Housing,Multifamily Housing,52944,52944.0,85,46.6,46.5,88.6,88.4,212.3,4.0,7179.4,294933.9,14599.44851,38.91493337,-76.97240003,
1913,PM4044593,1356_0857,The Palisade Apartments,2015,In Compliance,4540 MACARTHUR BLVD NW,PALISADES LLC,3,Washington,DC,20007,1954,Multifamily Housing,Multifamily Housing,56032,51800.0,87,63.0,66.1,89.2,92.4,208.6,4.0,1894.4,167362.4,26944.51387,38.90882459,-77.08671463,
1914,PM3499931,0081_0096,State Plaza Hotel,2015,In Compliance,2117 E ST NW,SHERRY TOWERS APARTMENT HOTEL LP,2,Washington,DC,20037,1955,Hotel,Hotel,94139,291819.0,95,43.0,42.4,89.3,87.4,1164.3,4.0,5507.9,1808782.5,63658.996139999996,38.89638955,-77.04750319,
1915,PM4565783,2892_0916,32 Thirty-two,2015,In Compliance,3232 GEORGIA AVE NW,3232 GEORGIA RETAIL LLC,1,Washington,DC,20010,2013,Multifamily Housing,Multifamily Housing,115146,115146.0,94,35.6,35.6,89.6,89.6,450.3,3.9,714.0,843214.6,12271.897340000001,38.93088770000001,-77.02377109999999,
1916,PM3998607,2554_0014,1870 Wyoming Ave NW Inc,2015,In Compliance,1870 WYOMING AVE NW,1870 WYOMING AVENUE NW INC,1,Washington,DC,20009,1917,Multifamily Housing,Multifamily Housing,63712,63712.0,91,57.7,59.1,89.7,90.0,266.8,4.2,799.0,259523.4,27921.25192,38.91849145,-77.04427685,
1917,PM3298382,3630_0808,Edgewood IV,2015,In Compliance,0611 EDGEWOOD ST NE,EDGEWOOD IV LP,5,Washington,DC,20017,1974,Multifamily Housing,Multifamily Housing,383900,383900.0,72,47.4,48.5,90.1,91.3,1565.0,4.1,15348.8,2172419.7,107826.1022,38.92312217,-76.99787913,
1918,PM3511715,1972_0024,PONCE DE LEON COOPERATIVE INC,2015,In Compliance,4514 CONNECTICUT AVE NW,PONCE DE LEON COOPERATIVE INC,3,Washington,DC,20008,1928,Multifamily Housing,Multifamily Housing,101479,78518.0,92,57.6,59.1,90.5,91.3,331.2,4.2,1689.0,329839.1,33993.64795,38.94852286,-77.06656295,
1919,PM4843909,2572_0816,Dorchester West,2015,In Compliance,2425 17TH ST NW,KALORAMA WEST LLC,,Washington,DC,20009,2014,Multifamily Housing,Multifamily Housing,,81167.0,98,31.9,31.2,90.8,88.9,317.3,3.9,899.0,652372.2,3643.43244,38.92241485,-77.03866536,
1920,PM3488104,0025_0808,2400 M Street,2015,In Compliance,2400 M ST NW,EQR-JBG 2400 RESIDENTIAL LLC,2,Washington,DC,20037,2005,Multifamily Housing,Multifamily Housing,3614625,433100.0,94,42.8,43.1,91.6,91.9,1765.9,4.1,12109.3,2835949.8,88603.5588,38.90507245,-77.05171073,
1921,PM3671428,3187_0053,Gables Takoma Park,2015,In Compliance,7035 BLAIR RD NW,L G TAKOMA PARK LP,4,Washington,DC,20012,2007,Multifamily Housing,Multifamily Housing,199880,189995.0,56,32.8,33.1,92.3,92.6,755.9,4.0,7842.6,1541016.4,9806.517233,38.97572694,-77.01879890000001,
1922,PM4563719,0621_0247,SeVerna,2015,In Compliance,1001 1ST ST NW,SEVERNA LLC,6,Washington,DC,20001,2011,Multifamily Housing,Multifamily Housing,80034,80034.0,88,33.1,33.2,92.3,92.4,276.3,3.5,1800.1,645845.6,4442.08649,38.90333692,-77.01193359999999,
1923,PM4000666,2584_0827,1820 Clydesdale Cooperative,2015,In Compliance,1820 CLYDESDALE PL NW,1820 CLYDESDALE COOPERATIVE INC,1,Washington,DC,20009,1927,Multifamily Housing,Multifamily Housing,55350,55350.0,71,44.5,43.9,92.5,90.8,228.7,4.1,1534.1,355751.0,12467.29046,38.92512041,-77.04401398,
1924,PM3993124,2895_0155,The Avenue,2015,In Compliance,3506 GEORGIA AVE NW,PMDP GA LLC,1,Washington,DC,20010,2012,Multifamily Housing,Multifamily Housing,98174,98174.0,84,45.8,46.8,93.3,93.5,410.4,4.2,927.5,622137.9,23765.10201,38.93351637,-77.02414295,
1925,PM3509928,0031_0835,"Potomac Plaza Terrace, Inc.- WHOLE BUILDING",2015,In Compliance,0730 24TH ST NW,POTOMAC PLAZA TERRACES,2,Washington,DC,20037,1961,Multifamily Housing,Multifamily Housing,210919,210000.0,93,50.9,50.0,93.4,90.7,891.7,4.2,5558.2,1177159.9,66659.4331,38.89909854,-77.05174686,
1926,PM3514124,0158_1058,The Palladium,2015,In Compliance,1325 18TH STREET NW,THE PALLADIUM CONDOMINIUM,2,Washington,DC,20036,1974,Multifamily Housing,Multifamily Housing,283452,195480.0,74,40.4,40.4,94.1,93.5,810.1,4.1,3295.5,1416065.5,30747.923039999998,38.90821983,-77.04136835,
1927,PM4349272,2035_0803,4801 Connecticut Ave Apartments,2015,In Compliance,4801 CONNECTICUT AVE NW,THOMAS SOMERVILLE IV,3,Washington,DC,20008,1939,Multifamily Housing,Multifamily Housing,281555,200000.0,89,52.3,53.1,94.1,94.9,934.0,4.7,7766.7,1117379.8,33087.68584,38.952418200000004,-77.06768979,
1928,PM2308305,0248_0066,1310 L Street,2015,In Compliance,1310 L ST NW,THE MORRIS AND GWENDOLYN CAFRITZ FOUNDATION,2,Washington,DC,20005,1969,Office,Office,212991,153800.0,100,31.6,31.6,94.4,94.4,622.1,4.0,508.7,1321434.2,3491.875335,38.90342309,-77.03050193,
1929,PM3505747,6219_0032,Atlantic Terrace Ltd.,2015,In Compliance,4301 3RD ST SE,ATLANTIC TERRACE LTD,8,Washington,DC,20032,1964,Multifamily Housing,Multifamily Housing,173291,200839.0,89,51.8,53.7,94.4,96.4,863.1,4.3,16701.5,1128552.9,65445.20201,38.82985202,-77.00225519,
1930,PM3316372,5869_0068,Oxford Manor Apartments,2015,In Compliance,2607 - 2637 BOWEN RD SE,OXFORD MANOR LP,8,Washington,DC,20020,1965,Multifamily Housing,Multifamily Housing,72760,291302.0,71,52.2,54.0,94.6,96.5,1255.3,4.3,14638.4,1626551.8,96465.40458,38.85976367,-76.98925904,
1931,PM3995408,3354_0026,Elevation 314,2015,In Compliance,314 CARROLL ST NW,TP2 LLC,4,Washington,DC,20012,2004,Multifamily Housing,Multifamily Housing,68000,68000.0,72,34.9,34.9,95.2,95.2,279.9,4.1,1565.8,558601.2,4666.497576,38.97489174,-77.01677983,
1932,PM4018326,0177_0129,The Windermere,2015,In Compliance,1825 NEW HAMPSHIRE AVE NW,WINDERMERE HARROWGATE LLC,2,Washington,DC,20009,1927,Multifamily Housing,Multifamily Housing,74360,74360.0,95,51.5,51.7,95.3,93.8,321.9,4.3,4381.2,430053.5,23625.15839,38.91499037,-77.03784485,
1933,PM4580670,6203_0804,Delwin Apartments,2015,In Compliance,4200 - 4240 SOUTH CAPITOL ST SE,RUTH E EVANS TRUSTEE,8,Washington,DC,20032,1961,Multifamily Housing,Multifamily Housing,73236,73236.0,87,57.5,57.1,95.3,92.3,322.4,4.4,5516.3,357757.0,29939.295860000002,38.82897475,-77.00736478,
1934,PM4000686,2671_1055,The Clairborne Condominium,2015,In Compliance,3033 16TH ST NW,CLAIBORNE COOPERATIVE ASSOCIATION INC,1,Washington,DC,20009,1909,Multifamily Housing,Multifamily Housing,69726,55000.0,92,45.6,46.0,95.9,96.4,235.3,4.3,344.8,370395.0,12447.25836,38.92752588,-77.03590825,
1935,PM3986468,2855_0078,Samuel J. Simmons NCBA Estates,2015,In Compliance,2801 14TH ST NW,SAMUEL J SIMMONS NCBA ESTATES #1,1,Washington,DC,20009,1981,Multifamily Housing,Multifamily Housing,173751,173751.0,56,48.6,48.8,96.3,95.1,752.4,4.3,885666.9,1104686.2,46666.164489999996,38.92625324,-77.03200515,
1936,PM3330701,2633_0829,Crestwood Apartments,2015,In Compliance,3900 16TH ST NW,CRESTWOOD APARTMENTS ASC,4,Washington,DC,20011,1951,Multifamily Housing,Multifamily Housing,263260,263260.0,88,61.3,62.3,96.6,97.5,1184.7,4.5,12319.5,1187190.5,120948.5436,38.93933039,-77.03727482,
1937,PM4007393,5871_0145,Washington View Assoc #.2,2015,In Compliance,2657 - 2661 STANTON RD SE,WASHINGTON VIEW ASSOCIATES LLC,8,Washington,DC,20020,1967,Multifamily Housing,Multifamily Housing,88082,88082.0,53,42.5,42.5,96.7,96.7,376.2,4.3,3371.1,643260.9,15519.659630000002,38.85826777,-76.99045205,
1938,PM3656431,0561_0037,Golden Rule Apartments,2015,In Compliance,901 NEW JERSEY AVE NW,GRA PROPERTIES LIMITEPARTNERSHIP,6,Washington,DC,20001,1972,Multifamily Housing,Multifamily Housing,174591,174591.0,94,30.9,30.9,96.9,96.9,721.1,4.1,14733.7,1578835.7,,38.90187396,-77.01287581,
1939,PM3672853,0222_0022,15th and H Street Associates LLP,2015,In Compliance,733 15TH ST NW,15TH AND H STREET ASSOCIATES LP,2,Washington,DC,20005,1912,Multifamily Housing,Multifamily Housing,230141,241383.0,98,38.9,39.2,96.9,97.2,1021.1,4.2,2305607.7,1897027.9,29120.73877,38.9000885,-77.03283599,
1940,PM3503889,2590_0801,Chalfonte,2015,In Compliance,1601 ARGONNE PL NW,COLUMBIA REALTY VENTURE LLC,1,Washington,DC,20009,1926,Multifamily Housing,Multifamily Housing,202589,202589.0,84,63.3,64.8,97.1,97.8,920.8,4.5,7345.8,868870.0,98635.08621000001,38.92668013,-77.03860608,
1941,PM3542046,2571_0104,The Envoy,2015,In Compliance,2400 16TH ST NW,ENVOY ASSOCIATES LTD PTSP,1,Washington,DC,20009,1918,Multifamily Housing,Multifamily Housing,276092,276092.0,79,36.6,36.9,97.1,97.5,1162.8,4.2,13398.8,2274464.0,23340.74276,38.92117849,-77.03691453,
1942,PM4370249,0653_0111,Fund South Capitol LLC,2015,In Compliance,1345 SOUTH CAPITOL ST SW,FUND SOUTH CAPITOL LLC,6,Washington,DC,20003,2012,Multifamily Housing,Multifamily Housing,269995,384480.0,88,31.0,31.0,97.3,97.3,1594.6,4.1,7025.7,3488591.4,222.7644583,38.87362509,-77.00934882,
1943,PM3982489,2801_0095,Longfellow Apartments,2015,In Compliance,5521 COLORADO AVE NW,LONFELLOW COLARDO ASSO LLC,4,Washington,DC,20011,1932,Multifamily Housing,Multifamily Housing,66218,66218.0,84,73.7,77.5,97.4,100.5,310.5,4.7,5120241.7,185925.0,42467.042460000004,38.95695535,-77.03213455,
1944,PM4007122,2790_0810,"1329-1337 Ft. Stevens Drive, NW",2015,In Compliance,1329 - 1337 FORT STEVENS DR NW,1329-1337 FT STEVENS DR LLC,4,Washington,DC,20011,1942,Multifamily Housing,Multifamily Housing,64692,64692.0,73,66.4,67.9,97.7,98.3,298.1,4.6,6082.8,253501.5,34319.86172,38.96493713,-77.03145893,
1945,PM3997829,2565_0804,Beverly Court Co-op Inc,2015,In Compliance,1736 COLUMBIA RD NW,BEVERLY COURT COOPERATIVE,1,Washington,DC,20009,1915,Multifamily Housing,Multifamily Housing,74072,74072.0,58,58.6,59.6,97.9,97.4,334.5,4.5,1258.1,377632.7,30509.703980000002,38.92419363,-77.04000854,
1946,PM3372033,1972_0001,The Connecticut House,2015,In Compliance,4500 CONNECTICUT AVE NW,CONNECTICUT HOUSE ASSOCIATES,3,Washington,DC,20008,1958,Multifamily Housing,Multifamily Housing,192638,192638.0,76,61.6,62.9,98.0,98.1,877.9,4.6,6007.3,898999.1,87975.85902,38.94810614,-77.06639494,
1947,PM3075531,2553_0073,The Promenade,2015,In Compliance,1884 COLUMBIA RD NW,ADAMS-MORGAN ASSOCIATES,1,Washington,DC,20009,1965,Multifamily Housing,Multifamily Housing,187707,206478.0,85,55.7,57.4,98.1,98.6,927.2,4.5,5089.0,1148173.8,75824.43733,38.91900547,-77.04425918,
1948,PM4374392,6157_0077,Gregory Apartments,2015,In Compliance,0822 BARNABY ST SE,VESTA DC III LLC,8,Washington,DC,20032,1967,Multifamily Housing,Multifamily Housing,88056,97506.0,96,55.4,57.0,98.1,97.6,437.4,4.5,7187.3,546415.9,35358.190039999994,38.83231157,-76.99130802,
1949,PM4360255,2106_0106,South Cathedral Mansions,2015,In Compliance,2900 CONNECTICUT AV NW,SCM SUB LLC,3,Washington,DC,20008,1921,Multifamily Housing,Multifamily Housing,172570,172570.0,73,46.3,47.0,98.5,97.4,757.2,4.4,598.5,1208647.2,38619.90703,38.92888421,-77.05536915,
1950,PM4364548,2967_0051,Dahlia Apartments,2015,In Compliance,7019 GEORGIA AVE NW,7019 GEORGIA AVENUE LLC,4,Washington,DC,20012,1929,Multifamily Housing,Multifamily Housing,72204,72204.0,87,69.0,71.5,98.9,101.5,338.4,4.7,4200.3,267859.4,40679.02661,38.97551819,-77.02642534,
1951,PM3540346,0096_0814,Bristol House,2015,In Compliance,1400 20TH ST NW,BRISTOL ASSOCIATES,2,Washington,DC,20036,1963,Multifamily Housing,Multifamily Housing,158375,158375.0,77,51.9,51.9,99.2,97.8,710.0,4.5,7238.5,992608.4,48318.06895,38.90899894,-77.04515044,
1952,PM3502417,0246_0806,Belvedere,2015,In Compliance,1301 MASSACHUSETTS AV NW,BELVEDERE LLC,2,Washington,DC,20005,1923,Multifamily Housing,Multifamily Housing,100441,100441.0,85,56.3,57.0,99.4,98.3,456.6,4.5,3328.0,567408.9,37162.32242,38.90525941,-77.0299438,
1953,PM3298389,0447_0041,Washington Apartments,2015,In Compliance,1300 - 1312 6TH ST NW,WASHINGTON APARTMENT LP,6,Washington,DC,20001,1977,Multifamily Housing,Multifamily Housing,83049,262000.0,82,32.0,32.0,100.6,100.6,1123.8,4.3,10118.2,2460462.6,,38.90838231,-77.02016409999999,
1954,PM3760909,4509_0157,Pentacle Apartments,2015,In Compliance,1501 - 1523 BENNING RD NE,PENTACLE LIMITED PARTNERSHIP,6,Washington,DC,20002,1978,Multifamily Housing,Multifamily Housing,151122,181010.0,73,32.1,32.1,100.7,100.7,777.3,4.3,9510.2,1701717.8,,38.89982819,-76.98181093,
1955,PM3507775,0529_0851,Mass Court - Municipal Benchmarking Account,2015,In Compliance,0300 MASSACHUSETTS AV,T-C MASS COURT LLC,2,Washington,DC,20001,2005,Multifamily Housing,Multifamily Housing,200000,363927.0,91,38.6,38.9,100.8,101.2,1593.8,4.4,13986.5,3076767.2,35487.93474,38.89964972,-77.01546727,
1956,PM4369402,0188_0802,Camden Roosevelt,2015,In Compliance,2101 16TH ST NW,SUMMIT ROOSEVELT LLC,1,Washington,DC,20009,1919,Multifamily Housing,Multifamily Housing,244643,169532.0,86,41.0,41.1,100.8,100.2,747.2,4.4,6821.8,1373165.5,22600.505390000002,38.9186611,-77.03606222,
1957,PM3540396,2589_0847,Harvard Hall,2015,In Compliance,1650 HARVARD ST NW,HARVARD HALL LIMITED LIABILITY COMPANY,1,Washington,DC,20009,1929,Multifamily Housing,Multifamily Housing,174979,174971.0,74,68.8,70.5,100.9,101.7,833.2,4.8,2538.1,704264.0,96312.52554,38.92691463,-77.03992289,
1958,PM3990264,1669_0805,"Amalgamated Transit Union, Intl",2015,In Compliance,5025 WISCONSIN AV NW,AMALGAMATED TRANSIT UNION,3,Washington,DC,20016,1982,Office,Office,61217,74350.0,89,37.6,37.4,101.0,99.6,325.1,4.4,1181.5,641272.8,6063.5200859999995,38.95577157,-77.08275067,
1959,PM4013991,3848_0825,Rhode Island Row,2015,In Compliance,2350 WASHINGTON PL NE,WASHINGTON METROPOLITAN AREA TRANSIT AUTHORITY,5,Washington,DC,20018,2012,Multifamily Housing,Multifamily Housing,94039,373430.0,96,32.6,32.6,101.3,101.3,1613.9,4.3,10849.5,3513641.5,1705.1937469999998,38.92103845,-76.99481641,
1960,PM4378445,3768_0003,Aventine Fort Totten Building 3,2015,In Compliance,350 GALLOWAY ST NE,W M A T A,5,Washington,DC,20011,2008,Multifamily Housing,Multifamily Housing,50877,54533.0,93,32.4,32.4,101.6,101.6,202.4,3.7,2472.7,517209.8,,38.952911,-77.00018399,
1961,PM3973683,0180_0085,Foundry United Methodist Church,2015,In Compliance,1500 16TH ST NW,FOUNDRY UNITED METHODIST CHURCH,2,Washington,DC,20036,1904,Worship Facility,Worship Facility,58701,60000.0,40,53.9,54.1,102.0,100.0,277.1,4.6,272.7,382141.9,19306.35702,38.9100414,-77.03688179,
1962,PM4769644,5730_0218,Roundtree Residences,2015,In Compliance,2513 ALABAMA AVE SE,ALABAMA AVE AFFORDABLE HOUSING L P,8,Washington,DC,20020,2013,Multifamily Housing,Multifamily Housing,94557,77399.0,71,32.5,32.5,102.1,102.1,414.3,5.4,2043.6,737489.5,,38.85739488,-76.96907135,
1963,PM3472399,2214_0806,The Kennedy Warren  Apartments,2015,In Compliance,3133 CONNECTICUT AV,THE KLINGLE CORPORATION INC,3,Washington,DC,20008,1931,Multifamily Housing,Multifamily Housing,484056,443594.0,95,53.0,54.1,102.8,103.9,1827.2,4.1,15234.4,2931041.7,135146.1147,38.93192924,-77.05548465,
1964,PM3989905,2666_0832,1475 EUCLID ST. N.W.,2015,In Compliance,1475 EUCLID ST NW,1475 EUCLID STREET NW ASSOCIATES,1,Washington,DC,20009,1950,Multifamily Housing,Multifamily Housing,64536,64536.0,91,62.5,64.1,102.9,104.5,307.2,4.8,2726.6,336928.5,28864.80566,38.9236479,-77.03497752,
1965,PM3072252,1923_0064,Lenchsire House,2015,In Compliance,3140 WISCONSIN AVE NW,LENCSHIRE ASSOCIATES LLC,3,Washington,DC,20016,1950,Multifamily Housing,Multifamily Housing,105499,118550.0,86,61.8,62.3,103.0,101.1,563.7,4.8,5728.4,634087.5,51602.77542,38.93171645,-77.0731743,
1966,PM3510509,2138_0811,Shoreham West Coop,2015,In Compliance,2502 CALVERT ST NW,SHOREHAM WEST COOPERATIVE APARTMENTS INC,3,Washington,DC,20008,1965,Multifamily Housing,Multifamily Housing,223693,223693.0,56,54.2,55.5,103.0,104.4,1042.8,4.7,4551.7,1445826.5,71993.47621000001,38.92279712,-77.05555158,
1967,PM4000672,2801_0803,1365 Kennedy St NW (Madison Terrace),2015,In Compliance,1365 KENNEDY ST NW,MADISON TRUSTEE COOPERATIVE INC,4,Washington,DC,20011,1936,Multifamily Housing,Multifamily Housing,50739,50739.0,66,66.9,69.8,103.4,106.4,245.2,4.8,1332.8,235458.0,25924.4215,38.95654686,-77.03258597,
1968,PM3993135,2865_0168,Castle Manor,2015,In Compliance,2515 13TH ST NW,COLUMBIA REALTY VENTURE LLC,1,Washington,DC,20009,1955,Multifamily Housing,Multifamily Housing,64319,63000.0,86,68.4,69.8,103.8,103.9,306.6,4.9,639.0,282406.1,33443.04875,38.92296088,-77.02923937,
1969,PM3622119,0281_0049,King Housing LLC,2015,In Compliance,1220 12TH ST NW,KING HOUSING LLC,2,Washington,DC,20005,1972,Multifamily Housing,Multifamily Housing,128167,128560.0,88,57.6,59.2,103.9,105.6,609.0,4.7,6631.8,782718.9,47352.25856,38.90627998,-77.02846272,
1970,PM4005326,2861_0078,Faircliff Plaza East,2015,In Compliance,1350 - 1358 FAIRMONT ST NW,FPE LP,1,Washington,DC,20009,1981,Multifamily Housing,Multifamily Housing,67799,58856.0,90,33.2,33.2,104.3,104.3,261.6,4.4,6691.3,572710.9,,38.92453267,-77.03148743,
1971,PM3866685,1096_0075,Kennedy Row,2015,In Compliance,1705 - 1729 EAST CAPITOL ST SE,KENNEDY ROW RESIDENTIAL LLC,6,Washington,DC,20003,2013,Multifamily Housing,Multifamily Housing,135000,134255.0,83,38.9,39.5,104.5,105.1,607.4,4.5,4534.0,1196997.8,11425.99965,38.88950066,-76.97985661,
1972,PM4008041,0491_3139,Newseum Residences,2015,In Compliance,555 PENNSYLVANIA AVENUE NW,555 PENNSYLVANIA AVE CONDO,2,Washington,DC,20001,2008,Multifamily Housing,Multifamily Housing,389719,145435.0,88,39.0,38.2,105.2,102.1,662.2,4.6,2632.4,1310168.0,12010.30042,38.89333219,-77.01935233,
1973,PM4360489,2574_0829,The Century,2015,In Compliance,2651 16TH ST NW,GWC DISTRICT RESIDENTIAL LLC,1,Washington,DC,20009,1937,Multifamily Housing,Multifamily Housing,77367,77367.0,80,72.3,75.9,105.3,109.1,385.0,5.0,2342.6,319165.5,45047.60284,38.92459139,-77.0360003,
1974,PM2701785,0291_0038,1275 Penn Ave NW,2015,In Compliance,0425 13TH ST NW,PENNSYLVANIA BUILDING ASSOCIATES,2,Washington,DC,20004,1955,Office,Office,289198,238380.0,95,33.6,33.6,105.4,105.4,1071.6,4.5,1528.4,2346215.8,,38.89596986,-77.02903567,
1975,PM3984144,4511_0068,Benning Court,2015,In Compliance,1701 - 1713 BENNING RD NE,GALES PLACE ASSOCIATES LIMITED PARTNERSHIP,6,Washington,DC,20002,1979,Multifamily Housing,Multifamily Housing,94098,94098.0,69,33.6,33.6,105.4,105.4,422.8,4.5,137954.3,925563.5,,38.89912783,-76.97782114,
1976,PM4380823,3560_0001,Rhode Island Gardens,2015,In Compliance,230 RHODE ISLAND AVE NE,RHODE ISLAND GARDENS LLC,5,Washington,DC,20002,1931,Multifamily Housing,Multifamily Housing,73304,77160.0,57,73.1,75.4,105.6,107.3,385.5,5.0,460.7,312323.5,45722.9607,38.91952541,-77.00247333,
1977,PM3286246,5926_0003,the overlook,2015,In Compliance,3700 9TH ST SE,PARKSIDE TERRACE DEVELOPMENT LLC,8,Washington,DC,20032,1968,Multifamily Housing,Multifamily Housing,319569,252800.0,87,35.6,35.6,105.7,105.7,1145.2,4.5,7631.0,2423386.8,7219.999906999999,38.83586505,-76.99431338,
1978,PM4868177,2530_0303,The Envoy,2015,In Compliance,2144 CALIFORNIA ST NW,2144 CALIFORNIA STREET LLC,2,Washington,DC,20008,1959,Multifamily Housing,Multifamily Housing,87955,87955.0,85,69.9,70.6,105.9,105.4,410.8,4.7,3067.6,401682.7,47753.230260000004,38.91602454,-77.04831616,
1979,PM3389780,0288_0847,(71068A) METRO CENTER,2015,In Compliance,1201 G ST NW,MACYS RETAIL HOLDINGS INC,2,Washington,DC,20005,1985,Retail Store,Retail Store,215108,272371.0,94,33.8,33.3,106.2,104.7,1232.9,4.5,2473.6,2699355.5,,38.89871274,-77.02839264,
1980,PM3987331,0189_0062,2013 N. HAMPSHIRE AVE NW,2015,In Compliance,2013 NEW HAMPSHIRE AVE NW,2013 NEW HAMP AVE NW LLC,1,Washington,DC,20009,1926,Multifamily Housing,Multifamily Housing,91382,91382.0,85,66.8,68.9,106.4,107.2,452.1,4.9,2601.7,464790.9,45148.27893,38.91752036,-77.03553896,
1981,PM2637498,0109_0801,President Madison Apartments,2015,In Compliance,1908 FLORIDA AV NW,BDC PRESIDENT MADISON LLC,2,Washington,DC,20009,1908,Multifamily Housing,Multifamily Housing,86166,86166.0,67,66.2,68.2,106.5,108.5,426.1,4.9,3987.1,446359.2,41832.31967,38.91503989,-77.04455847,
1982,PM3625087,2541_0806,The Park Crest,2015,In Compliance,2308 ASHMEAD PL NW,PARK CREST LLC,1,Washington,DC,20009,1923,Multifamily Housing,Multifamily Housing,58177,50000.0,67,61.7,62.2,106.7,105.6,244.9,4.9,2139.6,294095.9,20813.0477,38.91947455,-77.04847305,
1983,PM3989936,0218_0014,Jemal's Orme LLC,2015,In Compliance,1424 K ST NW,JEMALS ORME LLC,2,Washington,DC,20005,1910,Office,Office,51431,51400.0,93,46.6,47.3,106.8,107.6,242.2,4.7,1836.8,417586.0,9684.874536,38.90219791,-77.03293439,
1984,PM4369364,0199_0834,Camden Grand Parc,2015,In Compliance,900 15TH ST NW,SUMMIT GRAND PARC LLC,2,Washington,DC,20005,1932,Multifamily Housing,Multifamily Housing,50094,133225.0,60,41.2,41.5,107.1,106.5,620.0,4.7,3250.5,1190984.5,14316.879169999998,38.90158355,-77.0348295,
1985,PM3858763,0447_0039,GIBSON PLAZA APARTMENTS,2015,In Compliance,1301 7TH ST NW,FIRST RISING MOUNT ZION CHURCH,6,Washington,DC,20001,1972,Multifamily Housing,Multifamily Housing,228530,220338.0,98,50.9,51.0,107.2,104.4,1053.1,4.8,11207.3,1662107.0,55330.99974,38.90794969,-77.02165487,
1986,PM3274455,2538_0806,1901 Wyoming Avenue NW,2015,In Compliance,1901 WYOMING AV NW,1901 WYOMING AVENUE COOPERATIVE,1,Washington,DC,20009,1917,Multifamily Housing,Multifamily Housing,71791,71791.0,56,69.5,72.2,107.3,108.1,360.3,5.0,1264.3,346209.0,38053.56063,38.91859638,-77.04548941,
1987,PM3993985,0179_0823,The Regent,2015,In Compliance,1640 16TH ST NW,R/16 LLC,2,Washington,DC,20009,2001,Multifamily Housing,Multifamily Housing,68680,68680.0,88,63.3,62.8,107.4,104.5,339.6,4.9,1453.6,394319.0,30024.13868,38.91237319,-77.03696197,
1988,PM4019574,0177_0130,The Harrowgate,2015,In Compliance,1833 NEW HAMPSHIRE AVE NW,WINDERMERE HARROGATE LLC,2,Washington,DC,20009,1927,Multifamily Housing,Multifamily Housing,69192,69192.0,93,58.0,58.0,107.6,105.4,338.0,4.9,2356.3,452963.6,24688.03018,38.91525985,-77.03769059,
1989,PM3916703,2038_0010,Chesapeake,2015,In Compliance,4607 CONNECTICUT AVE NW,J F HORNING,3,Washington,DC,20008,1942,Multifamily Housing,Multifamily Housing,187490,264562.0,72,51.2,50.9,107.7,105.5,1271.1,4.8,7622.2,2003715.5,67004.80309,38.95041902,-77.06654488,
1990,PM4418130,5041_0047,Parkside Senior LP,2015,In Compliance,600 BARNES ST NE,PARKSIDE SENIOR L P,7,Washington,DC,20019,2012,Multifamily Housing,Multifamily Housing,89423,89423.0,65,37.0,37.1,107.7,107.8,413.5,4.6,2373.0,863527.9,3600.2008869999995,38.90008985,-76.95234362,
1991,PM4426941,0771_4074,Foundry Lofts,2015,In Compliance,301 TINGEY STREET SE,FOUNDRY LOFTS CONDO,6,Washington,DC,20003,1900,Multifamily Housing,Multifamily Housing,158188,210069.0,56,49.3,50.2,108.1,109.0,1007.4,4.8,4561.4,1659808.4,46927.926269999996,38.87470737,-77.00158454,
1992,PM4260417,2084_0023,Parkway Apartments,2015,In Compliance,3220 CONNECTICUT AVE NW,DARO REALTY INC,3,Washington,DC,20008,1927,Multifamily Housing,Multifamily Housing,74078,76000.0,79,71.0,73.0,108.3,108.9,385.6,5.1,2926.9,359358.5,41696.13217,38.93326456,-77.05749357,
1993,PM3637484,0099_0835,Hamilton House,2015,In Compliance,1255 NEW HAMPSHIRE AV NW,GBSK LLC,2,Washington,DC,20036,1964,Multifamily Housing,Multifamily Housing,187468,187468.0,93,58.9,60.5,108.8,110.5,926.6,4.9,9723.2,1235702.8,68192.06569,38.90646077,-77.04600037,
1994,PM3644406,0525_0840,Golden Rule Plaza,2015,In Compliance,1050 NEW JERSEY AV,GOLDEN RULE PLAZA INC,6,Washington,DC,20001,2003,Multifamily Housing,Multifamily Housing,112378,112378.0,77,34.7,34.7,108.8,108.8,521.5,4.6,5784.7,1141687.9,,38.90330095,-77.01456699,
1995,PM3994325,1317W_0020,2300 - 2308 41st ST NW,2015,In Compliance,2300 - 2308 41ST ST NW,PARKCREST LLC,3,Washington,DC,20007,1943,Multifamily Housing,Multifamily Housing,55400,55000.0,52,68.8,71.3,109.0,110.5,279.2,5.1,2761.5,284023.9,28134.770210000002,38.92045394,-77.08048371,
1996,PM3994318,1317W_0011,4101 W St NW,2015,In Compliance,4101 W ST NW,PARKCREST LLC,3,Washington,DC,20007,1943,Multifamily Housing,Multifamily Housing,55144,54884.0,51,71.6,74.3,109.1,110.7,280.6,5.1,2214.5,261311.3,30356.65915,38.91980585,-77.08050168,
1997,PM3502821,2225_0844,Quebec House South,2015,In Compliance,2800 QUEBEC ST NW,AMERICAN SECURITY & TRUST COMPANY,3,Washington,DC,20008,1950,Multifamily Housing,Multifamily Housing,344727,353727.0,90,53.0,51.9,109.2,106.0,1727.8,4.9,21661295.9,2659995.5,96559.9993,38.93618971,-77.05568671,
1998,PM4356086,5753_0092,Greenwood Manor,2015,In Compliance,2337 - 2349 GREEN ST SE,RUTH E EVANS TRUSTEE,8,Washington,DC,20020,1965,Multifamily Housing,Multifamily Housing,58720,106336.0,65,69.6,69.9,109.3,107.6,541.7,5.1,7080.3,540125.9,55542.40852999999,38.86138993,-76.9810051,
1999,PM4178752,2672_0669,Columbia Road,2015,Data Under Review by DOEE,1475 COLUMBIA ROAD NW,DISTRICT OF COLUMBIA HOUSING AUTHORITY ,1,WASHINGTON,DC,20009,1912,Multifamily Housing,Multifamily Housing,,26010.0,67,59.2,60.5,109.5,109.3,115.9,4.5,878.2,172794.0,9500.999770999999,38.927594,-77.03509,
2000,PM3992747,2539_0820,Connecticut Gardens,2015,In Compliance,1915 KALORAMA RD NW,COLUMBIA REALTY VENTURE LLC,1,Washington,DC,20009,1940,Multifamily Housing,Multifamily Housing,68453,58745.0,80,70.5,71.9,110.5,110.8,302.8,5.2,2587.8,300443.1,31166.528889999998,38.91961713,-77.04568461,
2001,PM4378432,3767_0006,Aventine Fort Totten Building 2,2015,In Compliance,300 HAMILTON ST NE,W M A T A,5,Washington,DC,20011,2007,Multifamily Housing,Multifamily Housing,127400,100916.0,71,35.2,35.2,110.6,110.6,407.6,4.0,4346.9,1041612.9,,38.95325872,-77.00102248,
2002,PM3500581,2107_0821,Connecticut Park Apartments,2015,In Compliance,2828 CONNECTICUT AV NW,CONNECTICUT PARK LLC,3,Washington,DC,20008,1955,Multifamily Housing,Multifamily Housing,131294,131294.0,64,67.7,69.0,111.0,111.2,674.7,5.1,5729.9,734727.5,63848.07425,38.92749928,-77.05419475,
2003,PM4379118,1264E_0858,Q Street Apartments,2015,In Compliance,2501 Q ST NW,NANCY L ANDRACSEK TRUSTEE,2,Washington,DC,20007,1940,Multifamily Housing,Multifamily Housing,85464,104817.0,42,74.9,77.8,112.5,114.2,554.1,5.3,2784.8,496784.8,61601.002210000006,38.911016100000005,-77.05303834,
2004,PM1273462,1171_2893,Harbourside,2015,In Compliance,2900 K STREET NW,THE RESIDENCES @ HARBOURSIDE,2,Washington,DC,20007,2009,Mixed Use Property,Financial Office,99485,191666.0,95,36.0,36.1,112.9,113.3,922.4,4.8,3267.9,2019561.0,,38.90199219,-77.05863574,
2005,PM4381232,3587_0805,Jemal's TKO,2015,In Compliance,0350 MORSE ST NE,JEMALS TKO L L C,5,Washington,DC,20002,1955,Non-Refrigerated Warehouse,Non-Refrigerated Warehouse,50725,50000.0,21,36.0,36.0,112.9,112.9,240.8,4.8,536.4,527119.9,,38.90871083,-77.00044605,
2006,PM3982177,1858_0051,The Brittany Apartments,2015,In Compliance,5432 CONNECTICUT AVE NW,BCB APARTMENTS LLC,3,Washington,DC,20015,1963,Multifamily Housing,Multifamily Housing,71469,71469.0,68,64.1,65.3,113.6,112.5,371.1,5.2,453.4,463649.5,29994.80541,38.96287873,-77.07472845,
2007,PM3495624,0157_0867,BRUNSWICK HOUSE APTS,2015,In Compliance,1414 17TH ST NW,F G H BRUNSWICK LLC,2,Washington,DC,20036,1955,Multifamily Housing,Multifamily Housing,100799,100799.0,76,65.2,65.6,113.7,111.8,525.1,5.2,3329.1,638763.9,43938.83535,38.90920018,-77.03889121,
2008,PM3515220,0212_2674,Andover House,2015,In Compliance,1200 14TH ST NW,ANDOVER HOUSE CONDOMINIUM,2,Washington,DC,20005,2005,Multifamily Housing,Multifamily Housing,146901,146229.0,77,53.8,55.7,113.8,115.9,741.8,5.1,4377.0,1176599.8,38479.00139,38.90708622,-77.03261972,
2009,PM3185754,0027_0820,2424 Pennsylvania,2015,In Compliance,2424 PENNSYLVANIA AV NW,PENNSYLVANIA HOUSE ASSOCIATION,2,Washington,DC,20037,1962,Multifamily Housing,Multifamily Housing,112937,94500.0,85,46.3,45.9,114.2,111.9,471.9,5.0,4759.7,869621.1,14055.45321,38.90299046,-77.05227492,
2010,PM3314944,5057_0803,Mayfair Mansions,2015,In Compliance,3720 - 3820 HAYES ST NE,MAYFAIR MANSIONS LIMITED PARTNERSHIP,7,Washington,DC,20019,1945,Multifamily Housing,Multifamily Housing,408330,300000.0,80,36.4,36.4,114.3,114.3,1462.0,4.9,23074.4,3200897.7,,38.9049781,-76.94609899,
2011,PM3540424,0211_0041,Windsor House,2015,In Compliance,1444 RHODE ISLAND AVE NW,WINDSOR ASSOCIATES IV LP,2,Washington,DC,20005,1965,Multifamily Housing,Multifamily Housing,139901,139901.0,56,62.8,62.5,115.0,112.5,731.8,5.2,5301.3,961191.7,55126.7645,38.9078593,-77.03362613,
2012,PM3998608,5783_0829,DC Lottery Building,2015,In Compliance,2101 MARTIN LUTHER KING JR AV SE,GOVERNMENT OF THE DISTRICT OF COLUMBIA DEPARTMENT OF GENERAL SERVICES,8,WASHINGTON,DC,20020,1947,Office,Office,84496,84496.0,93,48.5,48.5,115.1,115.1,427.2,5.1,0.9,760988.9,14987.7683,38.865415899999995,-76.98968531,
2013,PM3500007,0033_0087,Columbia Plaza All Bldgs,2015,In Compliance,2400 VIRGINIA AV NW,COLUMBIA PLAZA LP,2,Washington,DC,20037,1969,Multifamily Housing,Multifamily Housing,1544107,988819.0,78,71.1,73.0,115.3,115.8,5289.0,5.3,47636.6,5641907.3,510598.56299999997,38.89805121,-77.05057904,
2014,PM4178744,5114_0010,Kenilworth Courts,2015,Data Under Review by DOEE,4400 - 4442 PONDS ST NE,DISTRICT OF COLUMBIA HOUSING AUTHORITY ,7,WASHINGTON,DC,20019,1959,Multifamily Housing,Multifamily Housing,,470052.0,89,65.4,65.7,115.7,114.6,2244.4,4.8,31020.2,3104880.6,201301.0222,38.91169774,-76.9379485,
2015,PM3984070,2848_0077,Victory Heights Inc,2015,In Compliance,1369 IRVING ST NW,VICTORY HEIGHTS INC,1,Washington,DC,20010,2007,Multifamily Housing,Multifamily Housing,66290,66640.0,37,38.3,38.3,115.8,115.9,330.1,5.0,2463.7,706581.9,1388.9184810000002,38.92884889,-77.03202753,
2016,PM3672855,2535_0039,Gelmarc Towers Apartments,2015,In Compliance,1930 COLUMBIA RD NW,DAVID HORNSTEIN,1,Washington,DC,20009,1951,Multifamily Housing,Multifamily Housing,127257,127257.0,78,71.7,72.6,115.9,115.4,684.3,5.4,368515.0,725374.4,66453.96949,38.9181339,-77.04499858,
2017,PM4029073,1932_0001,Highview Towers,2015,In Compliance,2700 WISCONSIN AV NW,HIGHVIEW TOWERS INC,3,Washington,DC,20007,1942,Multifamily Housing,Multifamily Housing,55355,50000.0,83,88.3,90.0,116.1,117.1,279.6,5.6,4473.9,163477.0,38589.10305,38.92477448,-77.07358038,
2018,PM4565801,5046E_0047,Allen House,2015,In Compliance,3760 MINNESOTA AVE NE,UPPER ROOM HOUSING CORPORATION,7,Washington,DC,20019,1991,Multifamily Housing,Multifamily Housing,73776,67167.0,81,48.9,48.8,116.2,114.3,342.8,5.1,2575.3,611407.2,11954.22041,38.89178805,-76.95200221,
2019,PM4007112,2688_0107,Tivoli - 2,2015,In Compliance,1445 OTIS PL NW,THE MORRIS AND GWENDOLYN CAFRITZ FOUNDATION,1,Washington,DC,20010,1937,Multifamily Housing,Multifamily Housing,90652,90652.0,57,74.6,77.5,116.9,119.2,494.2,5.5,5044.8,490104.9,50895.27756,38.93551283,-77.03409314,
2020,PM1641990,0126_0852,The Farragut Building,2015,In Compliance,0900 17TH ST NW,GNAREI 1 FARRAGUT LLC,2,Washington,DC,20006,1962,Office,Office,200034,160257.0,96,41.6,41.5,117.1,115.9,809.0,5.0,1972.1,1651086.2,10331.57912,38.90174323,-77.03974025,
2021,PM3672674,0210_0126,Newport West,2015,In Compliance,1415 RHODE ISLAND AVE NW,DAVID HORNSTEIN,2,Washington,DC,20005,1966,Multifamily Housing,Multifamily Housing,116324,116324.0,68,67.7,68.4,117.2,115.9,735.6,6.3,3197.5,779403.9,3589.8585789999997,38.90885013,-77.03266283,
2022,PM3991731,2571_0960,Diplomat,2015,In Compliance,2420 16TH ST NW,BDC DIPLOMAT LLC,1,Washington,DC,20009,1940,Multifamily Housing,Multifamily Housing,65266,63170.0,84,70.4,71.0,117.3,115.9,342.0,5.4,1190.0,384400.2,31338.899760000004,38.92158861,-77.0370093,
2023,PM3997893,0179_0105,1630 R Street,2015,In Compliance,1630 R ST NW,TOURRAINE LLC,2,Washington,DC,20009,1923,Multifamily Housing,Multifamily Housing,88648,88648.0,73,56.2,55.9,117.4,114.9,464.6,5.2,2598.3,725460.3,25078.201119999998,38.91242659,-77.03756734,
2024,PM3630297,3088_0835,Slowe Hall,2015,In Compliance,1919 3RD ST NW,HOWARD UNIVERSITY,1,Washington,DC,20001,1941,Residence Hall-Dormitory,Residence Hall-Dormitory,87251,93711.0,80,67.9,69.2,117.8,119.2,506.5,5.4,1774.4,611099.9,42808.60419,38.91680813,-77.01548852,
2025,PM1416427,0055_0855,Munson Hall,2015,In Compliance,2212 I ST NW,GEORGE WASHINGTON UNIVERSITY,2,Washington,DC,20052,1939,Residence Hall-Dormitory,Residence Hall-Dormitory,81153,49662.0,81,50.3,49.6,117.9,115.1,257.5,5.2,2081.9,453281.4,9493.76816,38.90050729,-77.04940776,
2026,PM3857667,1932_0810,Skyline Towers Apartments,2015,In Compliance,2730 WISCONSIN AV NW,SKYLINE TOWERS ASSOCIATES LLC,3,Washington,DC,20007,1939,Multifamily Housing,Multifamily Housing,69522,69522.0,69,85.8,87.5,118.0,118.3,391.7,5.6,3383.0,272534.4,50318.22353,38.92599403,-77.07357783,
2027,PM4007117,2688_0805,Tivoli - 1,2015,In Compliance,1445 OGDEN ST NW,THE MORRIS AND GWENDOLYN CAFRITZ FOUNDATION,1,Washington,DC,20010,1937,Multifamily Housing,Multifamily Housing,90652,90652.0,51,81.2,84.8,119.4,123.2,510.6,5.6,4822.7,434417.3,58779.22626,38.93499867,-77.03398655,
2028,PM3928873,0183_0107,IUOE,2015,In Compliance,1125 17TH ST NW,INTERNATIONAL UNION OPERATING ENGINEERS,2,Washington,DC,20036,1956,Office,Office,89635,95981.0,92,47.8,48.0,119.5,118.8,500.6,5.2,1039.8,932934.6,14026.580919999999,38.90450718,-77.03810652,
2029,PM3505139,0081_0835,Potomac Park,2015,In Compliance,0510 21ST ST NW,COLUMBIA REALTY VENTURE,2,Washington,DC,20006,1950,Multifamily Housing,Multifamily Housing,103790,103790.0,76,68.1,68.1,119.6,117.3,568.2,5.5,5408.9,700268.1,46750.10554,38.89645373,-77.04694783,
2030,PM3990138,0157_0836,BAY STATE APTS.,2015,In Compliance,1701 MASSACHUSETTS AV NW,1701 MASSACHUSETTS AVENUE LLC,2,Washington,DC,20036,1939,Multifamily Housing,Multifamily Housing,62164,62164.0,89,69.6,69.6,119.9,119.9,342.3,5.5,3318.4,408562.8,29317.61183,38.90843909,-77.03882612,
2031,PM3048381,0140_0876,Sasakawa Peace Foundation,2015,In Compliance,1819 L ST NW,SASAKAWA PEACE FOUNDATION,2,Washington,DC,20036,1982,Office,Office,70262,52873.0,90,38.3,37.0,120.3,116.3,271.2,5.1,1641.0,593784.8,,38.90401049,-77.04246762,
2032,PM3633445,2609_0858,Park Monroe,2015,In Compliance,3300 16TH ST NW,3300 LLC,1,Washington,DC,20010,1964,Multifamily Housing,Multifamily Housing,110000,105291.0,84,52.7,53.1,120.4,120.8,559.5,5.3,3995.3,961254.0,22672.7417,38.93225794,-77.0368107,
2033,PM5791014,2670_0839,Columbia Heights Village APTS.,2015,In Compliance,2900 14TH ST NW,COLUMBIA HGTS VILLAGE APARTMENT LP,1,Washington,DC,20009,1977,Multifamily Housing,Multifamily Housing,170710,170710.0,96,38.4,38.4,120.5,120.5,726.7,4.3,1007182.0,1920096.7,,38.92706486,-77.03274625,
2034,PM3630382,3084_0830,Carver Hall,2015,In Compliance,0211 ELM ST NW,HOWARD UNIVERSITY,1,Washington,DC,20001,1942,Residence Hall-Dormitory,Residence Hall-Dormitory,52598,58567.0,81,72.7,75.2,120.7,123.3,326.6,5.6,1276.9,364500.0,30135.90024,38.91794486,-77.01502038,
2035,PM3540220,0282_0044,Cambridge Apartments,2015,In Compliance,1221 MASSACHUSETTS AVE NW,CAMBRIDGE APARTMENTS LIMITED PARTNERSHIP,2,Washington,DC,20005,1965,Multifamily Housing,Multifamily Housing,177359,177359.0,52,59.5,59.8,120.8,119.2,960.0,5.4,8109.0,1448463.1,56188.69655,38.90497814,-77.02901029,
2036,PM4354671,3766_0803,Aventine Fort Totten Building 1,2015,In Compliance,5210 3RD ST NE,W M A T A,5,Washington,DC,20011,2007,Multifamily Housing,Multifamily Housing,127400,100266.0,60,38.5,38.5,120.9,120.9,442.8,4.4,4360.7,1131698.9,,38.95308278,-77.00152387,
2037,PM2923735,0192_0825,Chastleton Cooperative,2015,In Compliance,1701 16TH ST NW,CHASTLETON COOPERATIVE ASSOCIATION INC,2,Washington,DC,20009,1920,Multifamily Housing,Multifamily Housing,272450,272450.0,64,57.3,56.8,121.3,119.7,1473.2,5.4,7303.9,2336500.0,76447.61579,38.91305139999999,-77.03616535,
2038,PM2977909,0574_0810,National Association of Letter Carriers,2015,In Compliance,100 INDIANA AVE NW,NATIONAL ASSOCIATION OF LETTER CARRIERS,6,Washington,DC,20001,1951,Office,Office,101093,87757.0,86,47.7,46.6,121.3,116.4,463.7,5.3,1433.9,875332.9,12024.53072,38.89333317,-77.01252649,
2039,PM3672603,0030_0818,The Elise Apartments,2015,In Compliance,0825 NEW HAMPSHIRE AV NW,ELAINE G MILLER,2,Washington,DC,20037,1957,Multifamily Housing,Multifamily Housing,107947,107947.0,48,80.5,82.6,121.3,121.9,614.9,5.7,6117.1,556301.6,67921.56319,38.90020144,-77.05194653,
2040,PM3515264,2868_0155,View 14,2015,In Compliance,2305 14TH ST NW,VIEW 14 INVESTMENTS LLC,1,Washington,DC,20009,2009,Multifamily Housing,Multifamily Housing,276542,276542.0,38,49.4,50.2,121.4,122.3,1469.0,5.3,7354.0,2698782.7,44485.99967,38.92076394,-77.03157535,
2041,PM2729439,0127_0055,800 17TH ST,2015,In Compliance,800 17TH ST NW,T C 800 17TH STREET NW OWNER LLC,2,Washington,DC,20006,2010,Office,Office,431570,390731.0,93,38.7,38.7,121.5,121.5,2023.4,5.2,5561.8,4430061.4,,38.90077894,-77.03974474,
2042,PM3467992,2794_0899,Walden Commons,2015,In Compliance,1336 MISSOURI AVE NW,WALDEN COMMONS LLC,4,Washington,DC,20011,1949,Multifamily Housing,Multifamily Housing,160098,135000.0,64,77.0,80.3,121.5,125.0,713.9,5.3,8815.4,769950.1,77693.51649,38.96114223,-77.03207423,
2043,PM4364522,2665_0042,Fairmont Apartments,2015,In Compliance,1400 FAIRMONT ST NW,NEW FAIRMONT L.P.,1,Washington,DC,20009,1913,Multifamily Housing,Multifamily Housing,84180,84000.0,67,38.7,37.7,121.5,118.3,372.7,4.4,55168.7,952529.9,,38.92423282,-77.0327762,
2044,PM1326957,0137_0056,1800 Massachusetts Avenue NW (SEIU),2015,In Compliance,1800 - 1824 MASSACHUSETTS AV NW,1800 MASSACHUSETTS AVENUE CORP,2,Washington,DC,20036,1978,Office,Office,185604,209311.0,95,38.7,38.7,121.7,121.7,1085.6,5.2,4411.8,2376893.3,,38.90878688,-77.04226616,
2045,PM4449421,2661_0863,Capitol View on 14th,2015,In Compliance,2400 14TH ST NW,DCO 2400 14TH STREET LLC,1,Washington,DC,20009,2013,Multifamily Housing,Multifamily Housing,255728,255728.0,55,41.7,42.0,121.8,122.2,1337.6,5.2,8731.0,2799299.6,11119.99816,38.92152193,-77.03212629,
2046,PM4097139,0517_0049,Judiciary House,2015,Data Under Review by DOEE,461 H ST NW,DISTRICT OF COLUMBIA HOUSING AUTHORITY ,2,WASHINGTON,DC,20001,1966,Multifamily Housing,Multifamily Housing,,197648.0,73,72.2,73.4,122.1,123.4,1011.1,5.1,18700.5,1285199.9,98769.00081,38.90003179,-77.01797833,
2047,PM3992388,2548_0819,Melwood,2015,In Compliance,1803 BILTMORE ST NW,COLUMBIA REALTY VENTURE LLC,1,Washington,DC,20009,1927,Multifamily Housing,Multifamily Housing,81056,72968.0,73,77.3,78.6,122.5,122.2,416.1,5.7,2031.4,422263.5,42026.741460000005,38.922611200000006,-77.04313234,
2048,PM1419320,0080_0825,Guthridge Hall,2015,In Compliance,2115 F ST NW,GEORGE WASHINGTON UNIVERSITY,2,Washington,DC,20052,1926,Residence Hall-Dormitory,Residence Hall-Dormitory,64899,68372.0,79,64.5,64.8,122.9,121.2,380.1,5.6,4035.3,528792.2,26088.52724,38.89764515,-77.04745411,
2049,PM3997957,2785_0062,Winchester-Van Buren,2015,In Compliance,6505 14TH ST NW,LUZON ASSOCIATES LP,4,Washington,DC,20012,1955,Multifamily Housing,Multifamily Housing,65416,65416.0,60,74.7,77.5,123.4,124.9,373.1,5.7,3658.9,412007.5,34816.43037,38.96965107,-77.03301126,
2050,PM3253388,2688_0043,Cavalier Apartments,2015,In Compliance,3500 14TH ST NW,CAVALIER APARTMENTS LP,1,Washington,DC,20010,1927,Multifamily Housing,Multifamily Housing,235994,252792.0,56,47.4,47.6,123.5,123.8,1356.8,5.4,19113.5,2615820.8,30507.299430000003,38.93462524,-77.0331782,
2051,PM4372799,5874_0054,"People's Cooperative Association, Inc.",2015,In Compliance,2430 ELVANS RD SE,PEOPLES COOPERATIVE ASSOCIATES INC,8,Washington,DC,20020,1966,Multifamily Housing,Multifamily Housing,54824,70568.0,58,59.9,62.2,123.5,126.0,389.9,5.5,5987.0,600448.9,21765.80153,38.85406375,-76.98669755,
2052,PM4178738,5874_0043,Elvans Road,2015,Data Under Review by DOEE,2440 - 2458 ELVANS RD SE,DISTRICT OF COLUMBIA HOUSING AUTHORITY ,8,WASHINGTON,DC,20020,1985,Multifamily Housing,Multifamily Housing,,27956.0,77,74.0,70.8,123.6,120.2,145.4,5.2,3447.0,179943.0,14545.00193,38.85399214,-76.98846551,
2053,PM3993109,2865_0167,Highview,2015,In Compliance,2505 13TH ST NW,COLUMBIA REALTY VENTURE LLC,1,Washington,DC,20009,1955,Multifamily Housing,Multifamily Housing,63431,62455.0,67,82.2,84.4,123.8,124.5,363.1,5.8,2000.9,328260.8,40141.94681,38.92269334,-77.02923972,
2054,PM3997889,2968_0801,Normandie,2015,In Compliance,6817 GEORGIA AV NW,NORMANDIE LLC,4,Washington,DC,20012,1955,Multifamily Housing,Multifamily Housing,91752,91752.0,63,72.4,74.1,124.0,123.6,522.9,5.7,3856.7,616660.4,45427.745310000006,38.97297766,-77.02652421,
2055,PM4260407,2210_0006,The Parkwest,2015,In Compliance,2929 CONNECTICUT AVE NW,DARO REALTY INC,3,Washington,DC,20008,1937,Multifamily Housing,Multifamily Housing,83284,82350.0,62,81.9,85.2,124.1,126.6,479.4,5.8,3470.9,439115.3,52499.42593,38.92898245,-77.05431754,
2056,PM3681481,1932_0806,Wisconsin House,2015,In Compliance,2712 WISCONSIN AV NW,MARY E SMITH TRUSTEE,3,Washington,DC,20007,1957,Multifamily Housing,Multifamily Housing,113689,99990.0,59,75.3,75.9,124.6,122.3,575.8,5.8,5096.8,637617.6,53568.40132,38.92535386,-77.07363657,
2057,PM3504391,2226_0801,Quebec House North,2015,In Compliance,2801 QUEBEC ST NW,BERNARD S GEWIRZ,3,Washington,DC,20008,1950,Multifamily Housing,Multifamily Housing,177642,177723.0,81,60.1,58.9,124.7,120.8,990.2,5.6,9230056.4,1534331.4,54479.00112000001,38.93718082,-77.05603108,
2058,PM3634687,1266_0304,Kew Gardens,2015,In Compliance,2700 Q ST NW,KEW BUILDING LLC,2,Washington,DC,20007,1924,Multifamily Housing,Multifamily Housing,120054,118500.0,46,80.8,81.6,124.7,123.1,690.9,5.8,5113.9,662100.5,73146.0384,38.9102865,-77.05578179,
2059,PM3858497,0117_0023,1146 19th Street,2015,In Compliance,1146 19TH ST NW,1146 19TH LLC,2,Washington,DC,20036,1986,Office,Office,61506,57523.0,92,39.7,39.3,124.7,123.3,305.7,5.3,1332.7,669301.5,,38.90512827,-77.04384358,
2060,PM3506526,2676_0795,SAMUEL KELSEY REDEVELOPMENT LIMITED PARTNERSHIP,2015,In Compliance,3300 14TH ST NW,SAMUEL KELSEY REDEVELOPMENT LIMITED PARTNERSHIP,1,Washington,DC,20010,1923,Multifamily Housing,Multifamily Housing,149140,149140.0,82,54.8,55.4,124.9,125.5,822.2,5.5,5655.0,1409833.7,33555.64438,38.93110133,-77.03296040000001,
2061,PM3541006,2689_0861,Cromwell,2015,In Compliance,1515 OGDEN ST NW,1515 ODGEN STREET LP,1,Washington,DC,20010,1949,Multifamily Housing,Multifamily Housing,156639,156632.0,43,75.7,76.8,125.1,124.7,906.0,5.8,13124.7,1003881.6,84250.61441000001,38.93606643,-77.03489698,
2062,PM4371687,4371_0819,The Goodwill Building,2015,In Compliance,2200 SOUTH DAKOTA AVE NE,2200 SOUTH DAKOTA AVE LLC,5,Washington,DC,20018,1982,Distribution Center,Distribution Center,93480,89900.0,64,47.7,48.1,125.2,125.7,488.8,5.4,659.7,947731.7,10520.12319,38.9200201,-76.95849178,
2063,PM2381169,0068_0088,WestPark Apartments,2015,In Compliance,1421 21ST ST NW,2130 P STREET ASSOCIATES,2,Washington,DC,20037,1975,Multifamily Housing,Multifamily Housing,197259,203712.0,64,57.8,57.8,125.5,123.8,1135.5,5.6,4982.7,1851660.0,54554.47283,38.90949013,-77.04791535,
2064,PM4178745,5185_0022,Lincoln Heights,2015,Data Under Review by DOEE,0310 - 0320 50TH ST NE,DISTRICT OF COLUMBIA HOUSING AUTHORITY ,7,WASHINGTON,DC,20019,1945,Multifamily Housing,Multifamily Housing,,460885.0,59,75.5,75.7,125.8,123.4,2440.6,5.3,36522.1,3006491.8,245255.0147,38.89479108,-76.92960623,
2065,PM3541282,2608_1039,Majestic Apartments,2015,In Compliance,3200 16TH ST NW,MORRIS AND GWENDOLYN CAFRITZ FOUNDATION,1,Washington,DC,20010,1937,Multifamily Housing,Multifamily Housing,126238,126238.0,42,81.1,84.6,126.0,128.9,742.9,5.9,266890.7,723510.9,77652.36171,38.93101931,-77.03704558,
2066,PM3987925,0221_0818,Willcap Holdings LLC,2015,In Compliance,0734 15TH ST NW,WILLCAP HOLDINGS LLC,2,Washington,DC,20005,1936,Office,Office,87574,78495.0,91,53.7,54.1,126.1,125.6,435.2,5.5,780.1,767143.7,15969.875080000002,38.899631299999996,-77.03406515,
2067,PM1191010,0166_0032,1701 Pennsylvania Ave.,2015,In Compliance,1701 PENNSYLVANIA AV NW,ATLANTIC FREEHOLDS,2,Washington,DC,20006,1962,Office,Office,263216,220603.0,92,46.9,47.5,126.6,127.1,1208.6,5.5,211313.4,2390079.8,22011.31508,38.89950761,-77.03977867,
2068,PM3997919,2589_0828,Park Terrace,2015,In Compliance,1660 LANIER PL NW,THE MORRIS AND GWENDOLYN CAFRITZ FOUNDATION,1,Washington,DC,20009,1940,Multifamily Housing,Multifamily Housing,70831,70831.0,46,80.1,82.9,126.9,128.7,418.5,5.9,2969.8,425008.7,42238.9456,38.92609123,-77.03922472,
2069,PM3512975,0458_0023,633 Indiana,2015,In Compliance,633 INDIANA AVE NW,633 INDIANA AVENUE INC,2,Washington,DC,20004,1968,Office,Office,175739,153031.0,95,55.7,56.6,127.2,128.2,859.0,5.6,9906.6,1475524.3,34839.950339999996,38.89438319,-77.02117156,
2070,PM3672756,0211_0037,The Seville Apartments,2015,In Compliance,1401 N ST NW,ELAINE GELMAN MILLER TRUSTEE,2,Washington,DC,20005,1965,Multifamily Housing,Multifamily Housing,115656,115656.0,64,81.4,81.4,127.2,127.1,831.6,7.2,5464.8,711363.0,5768.9826,38.90747114,-77.03233614,
2071,PM1553280,0217_0807,1411 K Street,2015,In Compliance,1411 K ST NW,1411 K PROPERTY LP,2,Washington,DC,20005,1959,Office,Office,89172,66396.0,87,40.6,39.0,127.6,122.5,309.4,4.7,1375.0,790824.5,,38.90290888,-77.03256558,
2072,PM3075466,1930_0077,Garfield House,2015,In Compliance,2844 WISCONSIN AVE NW,GARFIELD ASSOCIATES LLC,3,Washington,DC,20007,1964,Multifamily Housing,Multifamily Housing,63438,77242.0,70,68.3,68.7,127.7,126.9,447.2,5.8,4074.7,606439.3,32045.26135,38.92732545,-77.07358831,
2073,PM1454748,0569_0865,Gewirz Residence Building,2015,In Compliance,0120 F ST NW,GEORGETOWN UNIVERSITY,6,Washington,DC,20001,1992,Residence Hall-Dormitory,Residence Hall-Dormitory,242217,225264.0,67,51.4,51.0,127.9,125.7,1258.3,5.6,5412.2,2336290.6,35999.4954,38.89689525,-77.01338916,
2074,PM3997895,3903_0809,Parkview,2015,In Compliance,5120 SARGENT RD NE,G THOMAS BORGER TRUSTEES,5,Washington,DC,20017,1956,Multifamily Housing,Multifamily Housing,60872,60872.0,31,73.8,74.8,128.1,127.2,357.6,5.9,2442.0,431569.8,30207.549310000002,38.9537675,-76.98866475,
2075,PM3984106,4544_0179,Azeeze Bates,2015,In Compliance,1515 F ST NE,AZEEZE BATES LTD PARTNERSHP,6,Washington,DC,20002,1976,Multifamily Housing,Multifamily Housing,78475,78475.0,62,40.8,39.5,128.2,123.9,429.0,5.5,4408.8,939350.8,,38.89653092,-76.98242221,
2076,PM4018350,3698_0016,North capitol at plymouth,2015,In Compliance,5233 NORTH CAPITOL ST NE,NORTH CAPITOL AT PLYMOUTH INC,5,Washington,DC,20011,2004,Multifamily Housing,Multifamily Housing,60487,57000.0,34,48.5,49.0,128.5,129.0,317.6,5.6,2076.6,619706.9,6513.610062,38.95407554,-77.00866745,
2077,PM4577663,5740_0818,Hillcrest House,2015,In Compliance,2501 25TH ST SE,KEM ASSOCIATES LLC,8,Washington,DC,20020,1965,Multifamily Housing,Multifamily Housing,71745,71745.0,26,88.8,92.7,128.6,131.0,436.5,6.1,4477.8,355775.0,51580.00107,38.85775066,-76.97026896,
2078,PM3760910,3664_0823,The Heights I,2015,In Compliance,0400 - 0490 TAYLOR ST NE,HEIGHTS LP,5,Washington,DC,20017,1982,Multifamily Housing,Multifamily Housing,154532,154532.0,43,95.7,101.2,128.9,133.6,955.2,6.2,7491.4,616984.0,126782.5987,38.94261587,-77.00130077,
2079,PM2776163,2049_0804,V.N.N.C.Inc.,2015,In Compliance,3101 VEAZEY TR NW,V N N C INC,3,Washington,DC,20008,1967,Multifamily Housing,Multifamily Housing,698441,496441.0,72,68.8,70.7,129.4,129.6,2931.2,5.9,13126.0,3986134.0,196053.414,38.94489773,-77.06183406,
2080,PM3997905,0733_0851,Hill House,2015,In Compliance,0110 D ST SE,C CAFRITZ,6,Washington,DC,20003,1959,Multifamily Housing,Multifamily Housing,60842,60842.0,40,73.9,75.8,129.5,129.6,360.9,5.9,1051.3,442984.1,29858.82418,38.88523708,-77.00518819999999,
2081,PM3488856,5741_0138,Langston Lane,2015,In Compliance,2726 - 2734 LANGSTON PL SE,LANGSTON LANE LTD PRTNSHP,8,Washington,DC,20020,1973,Multifamily Housing,Multifamily Housing,113703,113703.0,42,79.4,80.4,129.7,128.6,683.0,6.0,9805.7,739185.9,65023.47519,38.85575582,-76.97073409,
2082,PM4385279,1874_0801,Huntington Apartments,2015,In Compliance,5225 CONNECTICUT AV NW,CONNECTICUT AVENUE LP,3,Washington,DC,20015,1964,Mixed Use Property,Multifamily Housing,108616,108616.0,50,77.6,79.0,130.0,131.5,651.5,6.0,5627.6,739174.9,59102.098710000006,38.95838235,-77.07140273,
2083,PM3982256,0315_0027,M Street Towers,2015,In Compliance,1112 M ST NW,WEST MADISON A CORPORATION,2,Washington,DC,20005,1965,Multifamily Housing,Multifamily Housing,95656,95656.0,68,74.9,75.5,130.1,128.6,570.9,6.0,3212.4,690896.9,48066.85127,38.90531858,-77.02783607,
2084,PM4385265,5344_0002,Hampton Apartments East,2015,In Compliance,4730 BENNING RD SE,HAMPTON EAST APTS,7,Washington,DC,20019,1964,Multifamily Housing,Multifamily Housing,93648,109256.0,58,84.5,84.9,130.1,128.6,665.1,6.1,6019.2,635025.9,70615.89912,38.88336497,-76.93162893,
2085,PM3982680,2745F_0815,Lowell School,2015,In Compliance,7775 17TH ST NW,LOWELL SCHOOL INC,4,Washington,DC,20012,1928,K-12 School,K-12 School,57160,85587.0,54,64.7,65.4,130.2,130.1,500.1,5.8,695.0,747474.9,29867.832189999997,38.98481982,-77.0384071,
2086,PM3989931,0185_0823,City Building - 1612 K Street,2015,In Compliance,1612 K ST NW,LEAF LLC,2,Washington,DC,20006,1958,Office,Office,83495,79495.0,93,45.1,44.1,130.3,126.5,445.2,5.6,1123730.7,924796.3,4295.235365,38.90219141,-77.03753001,
2087,PM1390727,0186_0810,Chanin Building - 815 Connecticut,2015,In Compliance,0815 CONNECTICUT AV NW,ALECTA PENSIONS FORSAKRING OMSESIDIGT,2,Washington,DC,20006,1964,Office,Office,269619,231784.0,89,48.2,48.1,130.4,129.0,1307.6,5.6,6154.5,2591968.5,23300.45663,38.90113082,-77.03797978,
2088,PM4376167,0371_0824,Henley Park Hotel,2015,In Compliance,0926 MASSACHUSETTS AV,TUDOR LP,2,Washington,DC,20001,1918,Hotel,Hotel,59425,59425.0,73,87.2,88.3,130.5,131.5,364.6,6.1,5546.8,323915.6,40790.400069999996,38.90315472,-77.02571048,
2089,PM2938280,0100_0103,American Society of Hematology Building,2015,In Compliance,2021 L ST NW,ASH 2021 L LLC,2,Washington,DC,20036,1969,Office,Office,77376,81032.0,92,44.8,44.5,130.7,129.1,454.6,5.6,605.6,950105.8,3890.899939,38.90402145,-77.04565168,
2090,PM3494759,0090_0032,2001 S Street,2015,In Compliance,2001 S ST NW,20TH & S ASSOCIATES LLC,2,Washington,DC,20009,1969,Office,Office,85007,59283.0,99,55.0,54.7,130.7,129.3,340.3,5.7,1752.9,606084.1,11945.71725,38.91434974,-77.04508348,
2091,PM3067027,0163_0051,UFCW Building,2015,In Compliance,1775 K ST NW,DOUGLAS H DORITY,2,Washington,DC,20006,1969,Office,Office,214784,214784.0,93,45.1,44.6,131.1,129.1,1209.2,5.6,2728.8,2521122.7,10863.35592,38.90288991,-77.04127548,
2092,PM3857665,1920_0826,Alto Towers Apartments,2015,In Compliance,3206 WISCONSIN AV NW,VICTOR REALTY LP,3,Washington,DC,20016,1932,Multifamily Housing,Multifamily Housing,56076,56076.0,60,87.0,90.6,131.3,133.5,345.6,6.2,2390.2,313824.5,38076.35959,38.93206821,-77.07291343,
2093,PM3997884,2792_0801,Rolling Terrace,2015,In Compliance,1360 PEABODY ST NW,ROLLING TERRACE LLC,4,Washington,DC,20011,1941,Multifamily Housing,Multifamily Housing,50268,50268.0,32,84.1,86.5,131.4,132.6,308.3,6.1,3284.1,303796.4,31912.160539999997,38.96275871,-77.03226709,
2094,PM3672429,0072_0858,The Savoy Apartments,2015,In Compliance,1101 NEW HAMPSHIRE AV NW,DAVID HORNSTEIN,2,Washington,DC,20037,1964,Multifamily Housing,Multifamily Housing,161623,161623.0,60,78.9,80.2,132.1,131.6,984.7,6.1,6924.0,1116365.1,89392.39847999999,38.90403308,-77.04831761,
2095,PM4357717,0140_0086,Hotel RL Washington DC,2015,In Compliance,1823 L ST NW,L STREET HOTEL LLC,2,Washington,DC,20036,1965,Hotel,Hotel,84839,78744.0,47,64.9,61.5,132.2,126.5,516.7,6.6,5495.3,719701.3,4339.508574,38.90398508,-77.04270844,
2096,PM3336808,0031_0837,Potomac Plaza,2015,In Compliance,2475 VIRGINIA AV NW,POTOMAC PLAZA APARTMENTS INC,2,Washington,DC,20037,1956,Multifamily Housing,Multifamily Housing,316550,316550.0,36,70.9,72.9,132.6,132.8,1903.3,6.0,10116.7,2579885.8,136478.8004,38.899083700000006,-77.05249743,
2097,PM3980627,0027_0819,2400 Pennsylvania AV NW,2015,In Compliance,2400 PENNSYLVANIA AV NW,S MARSH,2,Washington,DC,20037,1959,Multifamily Housing,Multifamily Housing,71934,72000.0,62,76.2,77.8,132.8,132.6,438.1,6.1,3652.3,532747.7,36677.17952,38.90283661,-77.05184238,
2098,PM4004685,2834_0863,Holmead Apartments,2015,In Compliance,3435 HOLMEAD PL NW,UIP-NYCB FIVE LP,1,Washington,DC,20010,1951,Multifamily Housing,Multifamily Housing,82702,82702.0,65,86.1,89.2,132.8,136.1,513.8,6.2,9959.5,492151.6,54418.6924,38.93306947,-77.03065786,
2099,PM4007724,0246_0017,Krasner Building,2015,In Compliance,1325 MASSACHUSETTS AVE NW,NATCA MEMBERSHIP INVESTMENT INC,2,Washington,DC,20005,1966,Office,Office,67394,67394.0,88,57.8,57.9,133.3,131.9,351.0,5.2,852.3,686414.3,15522.39003,38.90542073,-77.0303785,
2100,PM5014572,4373_0012,"Western Washington (DC) Corporate Center, LLC",2015,In Compliance,2850 NEW YORK AV NE,ITT WASHINGTON DC CORPORATION CENTER LLC,5,Washington,DC,20002,1900,Non-Refrigerated Warehouse,Non-Refrigerated Warehouse,107026,122708.0,53,55.4,54.6,133.3,129.4,632.7,5.2,92.8,1293304.2,23852.74079,38.91765461,-76.96470450000001,
2101,PM3686122,0245_0027,Sutton Plaza,2015,In Compliance,1230 13TH ST NW,1230 LLC,2,Washington,DC,20005,1964,Multifamily Housing,Multifamily Housing,120787,120786.0,64,73.3,74.0,133.5,132.2,734.3,6.1,6642.4,957648.7,55900.96554,38.90658784,-77.03006899,
2102,PM4006775,2612_0677,Park Pleasant Apartments,2015,In Compliance,3322 MOUNT PLEASANT ST NW,MT PLEASANT ASSOCIATES LLC,1,Washington,DC,20010,1964,Multifamily Housing,Multifamily Housing,51428,82830.0,32,78.6,78.7,134.1,131.4,511.0,6.2,6553.1,599239.7,44681.16892,38.93402825,-77.03948289,
2103,PM4900812,2692_0032,Pershing House Apartments,2015,In Compliance,3701 16TH ST NW,VAN METRE PERSHING HOUSE APARTMENT LLC,4,Washington,DC,20010,1925,Multifamily Housing,Multifamily Housing,54701,54701.0,44,88.5,90.5,134.8,135.4,345.6,6.3,4730.3,320715.0,37478.78945,38.93770098,-77.03610324,
2104,PM4376211,0197_0080,1101 16th St NW (DC Real Property identifier: 1970080),2015,In Compliance,1101 16TH ST NW,NATIONAL SOFT DRINK ASSOCIATION,2,Washington,DC,20036,1970,Office,Office,73594,73594.0,84,67.9,68.8,135.2,134.6,447.2,6.1,826.5,659399.9,27486.30183,38.90393441,-77.03607240000001,
2105,PM4013984,0180_0801,Hightowers Condominium - Whole Building,2015,In Compliance,1530 16TH ST NW,HIGHTOWER APARTMENTS LP,2,Washington,DC,20036,1941,Multifamily Housing,Multifamily Housing,64042,64042.0,57,70.2,69.9,135.5,132.6,391.7,6.1,2896.3,554637.9,26056.10034,38.91070763,-77.03697738,
2106,PM4352120,5572_0822,Linwood Apartments,2015,In Compliance,1815 - 1831 P ST SE,DGV ASSOCIATES L.L.C.,8,Washington,DC,20020,1941,Multifamily Housing,Multifamily Housing,54724,54724.0,31,100.6,104.7,135.5,138.4,355.6,6.5,2491.0,229326.0,47226.67525,38.87186035,-76.97809684,
2107,PM4226785,0345_0040,Hyatt Grand Washington DC,2015,In Compliance,1000 H ST NW,HHR GHDC LIMITED PARTNERSHIP,2,Washington,DC,20001,1986,Hotel,Hotel,404943,822175.0,86,64.8,65.7,135.9,136.8,4986.1,6.1,39080.5,7828243.3,265574.0114,38.89934806,-77.02649002,
2108,PM3857668,1920_0055,The Elaine Apartments,2015,In Compliance,3210 WISCONSIN AVE NW,DAVID HORNSTEIN,3,Washington,DC,20016,1954,Multifamily Housing,Multifamily Housing,92070,92070.0,30,94.9,99.2,136.5,140.8,736.0,8.0,5407.3,510648.8,7816.769909000001,38.93237765,-77.07304523,
2109,PM3295814,0540_0109,Capital Park Plaza,2015,In Compliance,0101 G ST SW,CAPITAL PARK APARTMENT LIMITED PARTNERSHIP,6,Washington,DC,20024,1962,Multifamily Housing,Multifamily Housing,289750,546234.0,70,78.1,80.3,137.3,138.0,3433.1,6.3,24960.0,4233990.9,282266.4434,38.88164604,-77.01260581,
2110,PM3997842,0177_0804,Croydon,2015,In Compliance,1815 17TH ST NW,USN LLC,2,Washington,DC,20009,1941,Multifamily Housing,Multifamily Housing,63633,63633.0,82,78.7,79.7,137.4,136.0,400.7,6.3,4718.0,488551.0,33425.082460000005,38.91468064,-77.03816696,
2111,PM3670053,4393_0015,Holiday Inn Express and Suites Washington DC Northeast,2015,In Compliance,1917 BLADENSBURG RD NE,SUTON ONE LLC,5,Washington,DC,20002,2008,Hotel,Hotel,100130,101130.0,61,59.5,59.9,137.9,138.4,614.5,6.1,5027.0,1069689.3,23703.46855,38.91646865,-76.97214603,
2112,PM1873494,0198_0845,The Executive Building,2015,In Compliance,1030 15TH ST NW,1030 W. 15TH  LLC,2,Washington,DC,20005,1963,Office,Office,340022,346376.0,93,46.8,46.4,138.2,136.6,2052.5,5.9,3724.8,4327069.5,14323.648290000001,38.90349979,-77.03487253,
2113,PM3523177,2039_0001,The Brandywine Apartments,2015,In Compliance,4545 CONNECTICUT AVE NW,BRANDYWINE APARTMENTS OF MARYLAND LLC,3,Washington,DC,20008,1954,Multifamily Housing,Multifamily Housing,347040,347040.0,53,73.1,73.6,138.2,136.7,2171.8,6.3,13426.9,2990241.0,151746.3913,38.94923706,-77.06589129,
2114,PM1347006,0248_0075,Franklin Court,2015,In Compliance,1330 L ST NW,FRANKLIN COURT INC,2,Washington,DC,20005,1991,Office,Office,653028,538272.2,91,44.6,44.6,139.0,139.0,3193.3,5.9,5050.8,6956875.8,2968.760034,38.90342407,-77.03123239,
2115,PM4380759,4393_0016,Fairfield Inn & Suites Washington DC New York Ave,2015,In Compliance,2305 NEW YORK AVE NE,SUTON TWO LLC,5,Washington,DC,20002,2008,Hotel,Hotel,84180,84180.0,89,62.3,62.3,139.1,139.1,518.2,6.2,4064.9,870135.4,22731.05683,38.91684189,-76.97149093,
2116,PM3519199,0629_0041,Hyatt Regency Washington on Capitol Hill,2015,In Compliance,400 NEW JERSEY AVE NW,NSHE TEMPLE LLC,6,Washington,DC,20001,1975,Hotel,Hotel,605014,715075.0,83,64.9,65.6,140.0,139.5,4449.1,6.2,24814999.7,7204313.9,218111.0087,38.89537545,-77.01170563,
2117,PM3993209,1869_0823,Livingston,2015,In Compliance,5437 CONNECTICUT AV NW,BDC LIVINGSTON LLC,3,Washington,DC,20015,1954,Multifamily Housing,Multifamily Housing,53410,50153.0,56,79.3,80.2,140.0,139.3,321.1,6.4,2324.9,398763.6,26160.77206,38.962881200000005,-77.0739525,
2118,PM3507252,5973_0016,MCP-RANDLE ASSOCIATES LP,2015,In Compliance,3300 - 3368 6TH ST SE,MCP-RANDLE ASSOCIATES LP,8,Washington,DC,20032,1967,Multifamily Housing,Multifamily Housing,188704,179232.0,36,80.7,79.8,140.6,135.0,1155.1,6.4,11479.0,1403779.5,96760.49152000001,38.84166787,-76.99732123,
2119,PM4178758,3070_0093,Kelly Miller,2015,Data Under Review by DOEE,0236 - 0238 W ST NW,DISTRICT OF COLUMBIA HOUSING AUTHORITY ,1,WASHINGTON,DC,20001,1941,Multifamily Housing,Multifamily Housing,,162712.0,32,94.7,99.0,140.9,144.6,1005.0,6.2,11113.1,946851.0,121732.0002,38.91921261,-77.01629474,
2120,PM1069662,0675_0853,999 North Capitol Street NE,2015,In Compliance,999 NORTH CAPITOL ST NE,UNION SQUARE 941 PROPERTY LP,6,Washington,DC,20002,1973,Office,Office,322375,321980.0,93,45.7,45.8,141.4,141.5,1943.5,6.0,3165.0,4217466.5,3237.7453179999998,38.90202876,-77.0085478,
2121,PM4822871,3846_0085,38460085_Greater Mt. Calvary Holy Church,2015,In Compliance,802 - 810 RHODE ISLAND AVE NE,GREATER MOUNT CALVARY HOLY CHURCH,5,Washington,DC,20018,1928,K-12 School,K-12 School,57815,50450.0,49,55.1,55.6,141.4,142.0,310.6,6.2,518.5,591368.0,7614.587559999999,38.92214194,-76.99428805,
2122,PM3511931,0330_0800,HU Service Building,2015,In Compliance,1000 FLORIDA AV NW,HOWARD UNIVERSITY,1,Washington,DC,20001,1930,Office,Office,218339,233173.0,92,75.5,76.8,141.6,141.0,1496.7,6.4,4335.0,2038499.8,106495.8041,38.92009841,-77.02631092,
2123,PM2703000,0024_0885,WestEnd25,2015,In Compliance,1229 - 1231 25TH ST NW,RH 1229-1231 25TH STREET LLC,2,Washington,DC,20037,2009,Multifamily Housing,Multifamily Housing,298475,271827.0,54,57.0,57.4,141.8,142.2,1683.8,6.2,8413.5,3124468.2,48337.107469999995,38.90666626,-77.05267791,
2124,PM1029531,0457_0039,600 E Street,2015,In Compliance,600 E ST NW,6TH & E ASSOCIATES LLC,2,Washington,DC,20004,1976,Office,Office,438018,356387.0,94,45.2,45.2,141.9,141.9,2155.9,6.0,3052.1,4720137.0,,38.89578709,-77.02049174,
2125,PM3993177,2905_0030,Paramount,2015,In Compliance,829 QUINCY ST NW,COLUMBIA REALTY VENTURE LLC,4,Washington,DC,20011,1955,Multifamily Housing,Multifamily Housing,67110,67104.0,42,77.4,78.1,142.1,141.6,433.7,6.5,3278.6,572916.3,32384.053630000002,38.93791919,-77.02491505,
2126,PM2236387,0105_0844,CTTWB,2015,In Compliance,1815 - 1821 PENNSYLVANIA AVE NW,CTTWB ASSOCIATES LP,2,Washington,DC,20006,2006,Office,Office,311730,354331.0,91,45.3,45.3,142.2,142.2,2148.7,6.1,3847.7,4704342.1,,38.90050243,-77.04229271,
2127,PM3857666,1920_0824,Macomb Gardens Apartments,2015,In Compliance,3725 MACOMB ST NW,3725 MACOMB STREET ASSOCIATES LLC,3,Washington,DC,20016,1937,Multifamily Housing,Multifamily Housing,60984,60984.0,48,98.9,102.3,142.3,144.2,411.0,6.7,4599.4,328846.2,49110.46075,38.93376582,-77.07349946,
2128,PM2946167,0181_0850,Benjamin T. Rome,2015,In Compliance,1619 MASSACHUSETTS AV,JOHNS HOPKINS UNIVERSITY,2,Washington,DC,20036,1961,Office,Office,101369,64843.0,88,62.5,63.5,143.4,144.5,410.2,6.3,796.6,707399.9,16405.996890000002,38.9080435,-77.03755546,
2129,PM3635119,0195_0145,Holiday Inn Washington DC Central / White House,2015,In Compliance,1501 RHODE ISLAND AVE NW,RHODE ISLAND ASSOCIATES LLC,2,Washington,DC,20005,1968,Hotel,Hotel,143175,123815.0,86,72.6,72.6,143.8,142.1,800.6,6.5,7035.9,1171921.3,49960.8174,38.90812348,-77.03497312,
2130,PM1946550,1600_0001,Nebraska Hall,2015,In Compliance,4400 MASSACHUSETTS AV NW,AMERICAN UNIVERSITY,3,Washington,DC,20016,1968,Residence Hall-Dormitory,Residence Hall-Dormitory,242889,106453.0,68,87.9,87.9,144.2,144.2,710.4,6.7,1609.2,775580.9,67059.70182,38.93908921,-77.08691058,
2131,PM2371512,0343_0830,1050 K Street,2015,In Compliance,1050 K ST NW,K-11 PARTNERS LLC,2,Washington,DC,20001,2008,Office,Office,151749,153440.0,91,46.0,46.0,144.3,144.3,944.0,6.2,1836.3,2066723.2,,38.90229303,-77.02670014,
2132,PM2736239,0516_0057,425 EYE,2015,In Compliance,425 I ST NW,425 EYE STREET NW LP,6,Washington,DC,20001,1973,Office,Office,488592,406482.0,97,48.1,47.7,144.3,143.0,2511.0,6.2,4797.7,5343686.8,13221.79961,38.90171237,-77.01694407,
2133,PM1356732,0247_0092,1101 14th street,2015,In Compliance,1101 14TH ST NW,AZURE 14TH STREET CORPORATION,2,Washington,DC,20005,1981,Office,Office,155374,119962.5,91,46.1,46.1,144.4,144.4,738.5,6.2,4582.2,1614798.1,179.3470586,38.90400249,-77.03159119,
2134,PM3829893,5057_0039,Paradise at Parkside,2015,In Compliance,3712 - 3722 HAYES ST NE,JAY STREET ASSOCIATES,7,Washington,DC,20019,1965,Multifamily Housing,Multifamily Housing,545798,472535.0,46,63.1,61.5,144.5,138.7,3011.1,6.4,50193.6,5185046.4,121036.0457,38.90727605,-76.94928386,
2135,PM3993306,5626_0815,Penn View Apartments,2015,In Compliance,2515 R ST SE,PENN VIEW INVESTMENT LLC,7,Washington,DC,20020,1963,Multifamily Housing,Multifamily Housing,81324,81324.0,27,80.4,80.7,144.7,142.6,536.6,6.6,4349.0,687220.9,41921.0857,38.86928498,-76.96968419,
2136,PM4867833,2726_0822,Rockford,2015,In Compliance,1444 ROCK CREEK FORD RD NW,ROCKFORD APARTMENTS LP,4,Washington,DC,20011,1959,Multifamily Housing,Multifamily Housing,77000,57750.0,21,56.0,54.4,144.8,139.7,363.7,6.3,4394.8,696670.4,8564.96127,38.96356423,-77.03537153,
2137,PM2590139,0800_0029,300 M Street SE,2015,In Compliance,300 M ST SE,FEDERAL CENTER LP,6,Washington,DC,20003,2001,Office,Office,397139,299132.0,91,46.2,46.2,145.2,145.2,1852.0,6.2,7791.5,4054734.2,,38.87685912,-77.00132817,
2138,PM3506518,PAR01200034,CH - Cuvilly Hall,2015,In Compliance,125 MICHIGAN AVE NE,TRINITY COLLEGE,5,Washington,DC,20017,1897,Residence Hall-Dormitory,Residence Hall-Dormitory,245260,71168.0,70,95.0,99.5,145.3,149.4,484.4,6.8,2628.1,454846.8,52084.722689999995,38.92832361,-77.00220432,
2139,PM2774635,0214_0105,1125 15th Street,2015,In Compliance,1125 15TH ST NW,1125 15TH STREET LLC,2,Washington,DC,20005,1970,Office,Office,364500,285264.0,90,46.3,45.8,145.4,143.8,1768.3,6.2,5627.6,3871419.4,,38.90463135,-77.03410643,
2140,PM4548778,0628_0895,AFGE,2015,In Compliance,0080 F ST NW,AMERICAN FEDERATION OF GOVERNMENT EMPLOYEES,6,Washington,DC,20001,1986,Office,Office,142975,133000.0,75,46.5,47.0,146.1,147.5,686.5,5.2,3612.4,1813808.8,,38.8970746,-77.01079868,
2141,PM3990149,0466_0841,St Dominic Church and Priory,2015,In Compliance,0630 E ST SW,SAINT DOMINICS CATHOLIC CHURCH,6,Washington,DC,20024,1961,Residence Hall-Dormitory,Residence Hall-Dormitory,59784,59784.0,46,83.6,84.4,146.2,144.4,400.3,6.7,2120.0,489759.9,33243.42691,38.88298827,-77.02090702,
2142,PM3395641,0049_0044,Westbrooke Place,2015,In Compliance,2201 N ST NW,WESTBROOKE PLACE LP,2,Washington,DC,20037,1995,Multifamily Housing,Multifamily Housing,226803,226803.0,23,63.0,63.8,146.5,147.4,1463.3,6.5,5737.7,2558577.7,55482.27422000001,38.90744381,-77.04919476,
2143,PM4178737,5865_0243,Barry Farms,2015,Data Under Review by DOEE,1324 - 1338 STEVENS RD SE,DISTRICT OF COLUMBIA HOUSING AUTHORITY ,8,WASHINGTON,DC,20020,1943,Multifamily Housing,Multifamily Housing,,452797.0,46,90.8,87.2,146.5,140.3,2823.8,6.2,48930.1,3248615.5,300142.995,38.85893418,-76.99883687,
2144,PM6768,0126_0057,1776 K Street NW,2015,In Compliance,1776 K ST NW,1776 K STREET ASSOCIATES & RIDDELL PARTNERS,2,Washington,DC,20006,1969,Office,Office,256839,213067.0,88,46.7,45.9,146.6,144.2,1427.3,6.7,3601.8,2915128.8,,38.90218881,-77.04123807,
2145,PM4007754,0184_0830,Presidential Cooperative,2015,In Compliance,1026 16TH ST NW,PRESIDENTIAL OWNERS INC,2,Washington,DC,20036,1923,Multifamily Housing,Multifamily Housing,56145,56145.0,17,69.0,68.2,146.7,141.8,366.9,6.5,612.9,585071.9,18757.7538,38.90352402,-77.03695704,
2146,PM1196655,0220_0066,City Center,2015,In Compliance,1401 H ST NW,TREA 1401 H LLC,2,Washington,DC,20005,1993,Office,Office,480132,374817.0,71,52.5,51.9,146.9,145.3,1992.7,5.3,3406.1,5764623.9,,38.90050099,-77.03242418,
2147,PM1180478,0289_0830,0601 Thirteenth Street NW (Homer),2015,In Compliance,0601 13TH ST NW,S KANN SONS COMPANY,2,Washington,DC,20005,1990,Office,Office,678600,604301.0,85,47.0,47.0,147.5,147.5,3801.2,6.3,4848.8,8322361.1,,38.89814115,-77.02926284,
2148,PM1411897,0184_0074,1601 K Street,2015,In Compliance,1601 K ST NW,PPF OFF 1601 K ST LLC,2,Washington,DC,20006,2005,Office,Office,276579,231860.0,89,47.0,47.0,147.6,147.6,1458.6,6.3,2950.2,3193536.2,,38.90300234,-77.03689296,
2149,PM3513277,2662_0204,Faircliff Plaza West,2015,In Compliance,1424 - 1432 CLIFTON ST NW,FPW LP,1,Washington,DC,20009,1979,Multifamily Housing,Multifamily Housing,122869,86232.0,48,47.1,47.1,147.7,147.7,543.1,6.3,9293.8,1189131.8,,38.92244513,-77.03336578,
2150,PM1407276,0290_0044,1299 Pennsylvania Ave NW,2015,In Compliance,0501 13TH ST NW,WARNER INVESTMENTS LP,2,Washington,DC,20221,1991,Office,Office,641215,769685.0,85,47.1,47.4,147.8,148.7,4848.3,6.3,9593.2,10614767.2,,38.89649317,-77.02826612,
2151,PM3884974,0743N_0076,Onyx on First,2015,In Compliance,1100 1ST ST SE,ONYX ACQUISITION LLC,6,Washington,DC,20003,2008,Multifamily Housing,Multifamily Housing,238094,224857.0,38,58.6,57.8,148.0,144.0,1451.0,6.5,7562.3,2726888.5,38687.773519999995,38.87720645,-77.00554142,
2152,PM4007727,2663_0845,2445 15TH ST. N.W.,2015,In Compliance,2445 15TH ST NW,THE DUNKIN-MAXWELL COMPANY,1,Washington,DC,20009,1937,Multifamily Housing,Multifamily Housing,63023,63023.0,28,76.1,76.5,148.0,145.5,420.6,6.7,2046.3,601395.3,27469.043339999997,38.92285743,-77.03495498,
2153,PM4218475,2574_0033,Park Meridian,2015,In Compliance,2637 16TH ST NW,VAN METRE PARK MERIDIAN APARTMENTS LLC,1,Washington,DC,20009,1965,Multifamily Housing,Multifamily Housing,55555,55818.0,44,81.5,83.2,148.1,148.0,376.4,6.7,1862.0,488934.2,28825.19945,38.92434798,-77.03574406,
2154,PM3957505,1025_0811,Maritime Plaza-1,2015,In Compliance,1201 M ST SE,WASHINGTON GAS LIGHT CO,6,Washington,DC,20003,2000,Office,Office,207338,210467.0,91,55.4,55.1,148.4,146.4,1352.8,6.4,1551.4,2662541.3,25735.64176,38.87613896,-76.98934998,
2155,PM1415246,0081_0846,Dakota,2015,In Compliance,2100 F ST NW,GEORGE WASHINGTON UNIVERSITY,2,Washington,DC,20052,1989,Residence Hall-Dormitory,Residence Hall-Dormitory,69402,70389.0,68,63.9,65.1,148.7,150.0,461.0,6.5,7360.0,805236.6,17374.26757,38.89709827,-77.04695599,
2156,PM4053839,2934_0802,The Verona,2015,In Compliance,5601 13TH ST NW,5601 13TH STREET NW LLC,4,Washington,DC,20011,1955,Multifamily Housing,Multifamily Housing,70212,52680.0,3,65.6,67.3,148.7,152.5,345.9,6.6,6694.9,589661.7,14416.15072,38.95758108,-77.0289762,
2157,PM1034332,0197_0854,American Chemical Society - 1550 Building,2015,In Compliance,1550 M ST NW,AMERICAN CHEMICAL SOCIETY,2,Washington,DC,20005,1988,Office,Office,96839,85277.0,89,47.6,47.5,149.5,149.0,543.5,6.4,1868.5,1189836.0,,38.90536697,-77.03572636,
2158,PM4008037,0163_0056,1717 K St NW,2015,In Compliance,1000 CONNECTICUT AV,CONNECTICUT & K ASSOCIATES LLC,2,Washington,DC,20036,2012,Office,Office,430428,406131.0,89,47.7,48.1,149.7,151.0,2591.3,6.4,5848.9,5673299.4,,38.903017299999995,-77.03986805,
2159,PM1526560,1661_0813,5335 Chevy Chase Pavilion,2015,In Compliance,5335 WISCONSIN AV NW,CLPF-CC PAVILION LP,3,Washington,DC,20015,1990,Office,Office,894921,204788.8,90,47.7,46.7,149.9,146.8,1308.4,6.4,14065.6,2864582.5,,38.96077377,-77.08484663,
2160,PM1419790,0072_0007,Aston,2015,In Compliance,1129 NEW HAMPSHIRE AVE NW,GEORGE WASHINGTON UNIVERSITY,2,Washington,DC,20037,1965,Residence Hall-Dormitory,Residence Hall-Dormitory,104970,70625.0,69,74.2,75.2,150.4,151.5,476.2,6.7,4407.3,718582.0,27866.25547,38.90445719,-77.04788798,
2161,PM3495558,0242_0093,N STREET VILLAGE LTD PTR,2015,In Compliance,1301 14TH ST NW,N STREET VILLAGE INC,2,Washington,DC,20005,1995,Multifamily Housing,Multifamily Housing,125929,125929.0,39,47.9,47.9,150.5,150.5,808.0,6.4,4320.4,1768980.3,,38.90759517,-77.03122311,
2162,PM3468298,0444_0810,asbury dwellings,2015,In Compliance,1616 MARION ST NW,ASBURY DWELLINGS INC,6,Washington,DC,20001,1950,Multifamily Housing,Multifamily Housing,128015,119316.0,34,89.5,91.1,150.6,151.1,828.0,6.9,4699.7,946856.9,74474.36149,38.91209084,-77.02158015,
2163,PM3529495,0429_0838,Portrait Building,2015,In Compliance,701 8TH ST NW,REGENCY PORTRAIT LLC,2,Washington,DC,20001,2005,Office,Office,111026,144486.0,89,48.0,46.9,150.6,147.4,927.9,6.4,2416.2,2031481.9,,38.89900852,-77.0226566,
2164,PM3298446,3630_0807,Edgewood I,2015,In Compliance,0601 EDGEWOOD ST NE,EDGEWOOD TERRACE ONE LLC,5,Washington,DC,20017,1974,Multifamily Housing,Multifamily Housing,345574,250000.0,62,60.8,61.3,150.8,151.2,1647.0,6.6,31678.5,3045319.6,48207.69842,38.92461518,-76.99662762,
2165,PM3632510,0182_0083,The University of California Washington Center,2015,In Compliance,1608 RHODE ISLAND AVE NW,THE REGENTS OF THE UNIVERSITY OF CALIFORNIA,2,Washington,DC,20036,2001,College/University,Residence Hall-Dormitory,184556,158819.0,52,66.4,66.3,151.7,149.8,1062.8,6.7,720208.3,1825834.5,43092.37793,38.90651258,-77.03738575,
2166,PM3512980,2873_1101,Howard Tower Plaza,2015,In Compliance,2251 SHERMAN AVE NW,HOWARD UNIVERSITY,1,Washington,DC,20001,1988,Residence Hall-Dormitory,Residence Hall-Dormitory,520000,573687.0,66,71.4,71.6,152.0,150.1,3883.5,6.8,39394.7,6197125.4,198234.7,38.92041853,-77.02379153,
2167,PM3354050,0164_0003,1001 Connecticut Avenue,2015,In Compliance,1001 CONNECTICUT AV NW,1001 CONNECTICUT AVENUE LLC,2,Washington,DC,20036,1953,Office,Office,171080,142750.0,89,57.7,57.3,152.2,149.5,986.7,6.9,4021.7,1845253.7,,38.90300964,-77.03906355,
2168,PM4900810,2860_0081,Columbia Uptown,2015,In Compliance,1375 FAIRMONT ST NW,VAN METRE COLUMBIA UPTOWN APARTMENTS LLC,1,Washington,DC,20009,1950,Multifamily Housing,Multifamily Housing,88913,88913.0,37,48.5,50.0,152.2,157.0,577.0,6.5,2148.3,1263255.8,,38.92503125,-77.03181165,
2169,PM1368706,0118_0818,1901 Pennsylvania Ave,2015,In Compliance,1901 PENNSYLVANIA AVE NW,WASHREIT 1901 PENNSYLVANIA AVE TRUSTEE LLC,2,Washington,DC,20006,1960,Office,Office,113200,109909.0,88,56.3,56.1,152.4,150.7,724.8,6.6,1792.5,1438652.1,12737.30062,38.90068906,-77.04379751,
2170,PM1326900,0376_0828,0975 F Street NW (Carroll Square),2015,In Compliance,977 - 979 F ST NW,ST PATRICKS CHURCH,2,Washington,DC,20004,2006,Office,Office,179929,187954.0,88,48.7,48.7,152.8,152.8,1224.5,6.5,4153.7,2680931.7,,38.89764136,-77.0250236,
2171,PM3297072,4024_0002,Brookland Manor,2015,In Compliance,2525 - 2531 14TH ST NE,BRENTWOOD ASSOCIATES,5,Washington,DC,20018,1938,Multifamily Housing,Multifamily Housing,59161,535000.0,28,90.3,92.2,153.2,152.4,3772.6,7.1,42856.2,4374481.1,334105.8909,38.92393914,-76.98484277,
2172,PM4178751,3040_0126,Park Morton,2015,Data Under Review by DOEE,610 MORTON ST NW,DISTRICT OF COLUMBIA HOUSING AUTHORITY ,1,WASHINGTON,DC,20010,1960,Multifamily Housing,Multifamily Housing,,134100.0,41,96.5,101.2,153.2,158.1,879.6,6.6,11389.1,975019.9,96120.99689,38.931853600000004,-77.02144659,
2173,PM3989358,1863_0047,Blessed Sacrament School,2015,In Compliance,5949  WESTERN AVE NW,ROMAN CATHOLIC ARCHBISHOP  OF WASHINGTON,3,Washington,DC,20015,1933,K-12 School,K-12 School,66921,83290.0,47,58.4,57.4,153.3,148.0,554.3,6.7,112.8,1074302.9,11975.40647,38.96842719,-77.0747692,
2174,PM1423599,0078_0848,2099 Penn Ave,2015,In Compliance,2099 PENNSYLVANIA AV NW,2099 OWNER LP,2,Washington,DC,20006,2000,Office,Office,231809,231164.0,86,49.0,49.0,153.7,153.7,1515.2,6.6,2400.1,3317254.7,,38.90164902,-77.04629552,
2175,PM16591,0106_0049,International Square,2015,In Compliance,1835 I ST NW,CARR CRHP PROPERTIES LLC,2,Washington,DC,20006,1980,Office,Office,1185122,1343643.0,88,49.0,48.8,153.9,153.1,8818.4,6.6,23531.5,19306816.4,,38.90227289,-77.04194689,
2176,PM2394435,0073_0883,2175 K Street,2015,In Compliance,2175 K ST NW,DEKA IMMOBILIEN INVESTMENT GMBH,2,Washington,DC,20437,1981,Office,Office,183962,145743.0,87,49.1,48.7,154.3,152.8,958.5,6.6,4615.6,2098464.2,,38.90300486,-77.0484479,
2177,PM2791015,0502_0184,"Tiber Island Cooperative Homes, Inc.",2015,In Compliance,0461 N ST SW,TIBER ISLAND COOPERATIVE HOMES,6,Washington,DC,20024,1964,Multifamily Housing,Multifamily Housing,315832,315832.0,36,81.4,83.6,154.5,156.8,2207.9,7.0,15424.2,3059961.1,152551.896,38.876056899999995,-77.01806073,
2178,PM2924130,0008_0806,"Watergate East, Inc.",2015,In Compliance,2500 VIRGINIA AV NW,WATERGATE EAST INC,2,Washington,DC,20037,1965,Multifamily Housing,Multifamily Housing,449825,389352.0,22,94.3,93.0,154.5,153.5,2701.4,6.9,9103.3,2768192.5,3922.04356,38.89938773,-77.05423512,
2179,PM4342053,5084_0300,Benning Woods,2015,In Compliance,0130 - 0138 42ND ST NE,L E HORNING,7,Washington,DC,20019,1968,Multifamily Housing,Multifamily Housing,50796,73698.0,42,109.7,112.2,154.7,157.4,542.0,7.4,5172.1,409171.9,66858.78091,38.89168642,-76.94291618,
2180,PM4007389,0209_0929,The DeSoto,2015,In Compliance,1445 P ST NW,METRO MARKET LLC,2,Washington,DC,20005,2004,Multifamily Housing,Multifamily Housing,57992,57992.0,48,65.6,63.9,154.9,149.5,394.8,6.8,3064.0,699834.9,14156.741890000001,38.90981955,-77.03349768,
2181,PM1071004,0218_0079,1400 K Street,2015,In Compliance,1400 K ST NW,TRIZECHAHN LLC - 1400 K STREET NW,2,Washington,DC,20005,1982,Office,Office,292090,207188.0,89,49.4,48.9,155.0,153.4,1369.4,6.6,2236.3,2998109.5,,38.90218344,-77.03228197,
2182,PM1431050,0162_0821,1707 L Street,2015,In Compliance,1707 L ST NW,1709 L STREET NW LLC,2,Washington,DC,20036,1963,Office,Office,165374,109926.0,90,61.6,61.5,155.3,153.6,744.7,6.8,1602.2,1397401.1,20047.20094,38.9040518,-77.03922666,
2183,PM4178748,4121_0080,Montana Terrace,2015,Data Under Review by DOEE,1625 MONTANA AVENUE NE,DISTRICT OF COLUMBIA HOUSING AUTHORITY ,5,WASHINGTON,DC,20018,1968,Multifamily Housing,Multifamily Housing,,80000.0,40,80.1,82.4,155.6,158.0,498.6,6.2,4406.8,801331.9,36760.99951,38.921,-76.981044,
2184,PM4368842,0395_0055,Heritage at Shaw Station,2015,In Compliance,801 - 811 R ST NW,LINCOLN WESTMORELAND PHASE II LP,6,Washington,DC,20001,1963,Multifamily Housing,Multifamily Housing,59401,80000.0,92,49.6,49.6,155.7,155.7,530.9,6.6,6063.7,1162254.7,,38.91339184,-77.02319364,
2185,PM1421555,0157_0850,Bernstein Offit Building,2015,In Compliance,1717 MASSACHUSETTS AV NW,THE JOHN HOPKINS UNIVERSITY,2,Washington,DC,20036,1963,Office,Office,147542,122460.0,87,74.3,75.5,156.0,154.7,852.5,7.0,1139.3,1339841.8,45282.28797,38.90872163,-77.03950985,
2186,PM27448,0085_0060,The Millennium Building,2015,In Compliance,1909 K ST NW,NINA JO ASSOCIATES LLC,2,Washington,DC,20006,1973,Office,Office,239437,242937.0,91,49.7,50.2,156.0,157.8,1616.1,6.7,3608.8,3538203.9,,38.90281745,-77.04408634,
2187,PM1268754,0318_0032,1100 New York Avenue,2015,In Compliance,1110 NEW YORK AV NW,AZ JH REIT DC LP,2,Washington,DC,20005,1991,Office,Office,563484,580706.0,92,50.0,50.0,156.2,156.2,3869.2,6.7,10447.8,8446786.1,2094.761928,38.90067675,-77.027446,
2188,PM4006431,6201_0027,Madison Courts,2015,In Compliance,0002 - 0032 CHESAPEAKE ST SW,CHESAPEAKE PRESERVATION LLC,8,Washington,DC,20032,1944,Multifamily Housing,Multifamily Housing,61642,61642.0,13,104.9,105.4,156.5,153.7,453.9,7.4,5241.8,401336.0,50944.9701,38.82887868,-77.00795766,
2189,PM1419714,0103_0001,Francis Scott Key Hall,2015,In Compliance,600 20TH ST NW,GEORGE WASHINGTON UNIVERSITY,2,Washington,DC,20052,1910,Residence Hall-Dormitory,Residence Hall-Dormitory,62271,61135.0,62,86.9,88.2,156.6,156.4,436.6,7.1,3534.7,560962.9,33957.34972,38.89764371,-77.04518683,
2190,PM4361120,4102_0248,Quality Inn and Suites,2015,In Compliance,1600 NEW YORK AV NE,44 WASHINGTON ASSOCIATES LLC,5,Washington,DC,20002,1966,Hotel,Hotel,99217,99217.0,27,69.3,69.6,156.7,157.0,686.8,6.9,5557.5,1167970.4,28873.974680000003,38.91743261,-76.97997383,
2191,PM3997914,2582_0826,Park Crescent,2015,In Compliance,2901 18TH ST NW,THE MORRIS AND GWENDOLYN CAFRITZ FOUNDATION,1,Washington,DC,20009,1938,Multifamily Housing,Multifamily Housing,81080,81080.0,11,87.1,89.5,156.8,156.9,579.8,7.2,2372.7,742466.9,45319.38357,38.92649002,-77.04108546,
2192,PM1556347,0116_0074,1220 19th Street,2015,In Compliance,1220 19TH ST NW,WRIT LP,2,Washington,DC,20036,1975,Office,Office,110414,103501.0,89,55.7,56.2,157.0,157.5,700.1,6.8,3000.5,1430336.2,8812.85283,38.90664227,-77.04393917,
2193,PM2223689,0222_0814,1445 New York,2015,In Compliance,1445 NEW YORK AV NW,PONTE GADEA OF WASHINGTON LLC,2,Washington,DC,20005,1897,Office,Office,177195,200913.0,90,50.1,50.0,157.4,157.0,1347.8,6.7,2591.4,2950903.3,,38.89935994,-77.03292433,
2194,PM4104309,2661_0862,Adams-Garden Towers,2015,In Compliance,2325 15TH ST NW,ADAMS GARDEN TOWERS LLC,1,Washington,DC,20009,1937,Multifamily Housing,Multifamily Housing,54613,49888.0,46,94.8,95.5,157.5,154.9,363.0,7.3,2373.5,405305.2,33479.88711,38.92086433,-77.0346777,
2195,PM1069664,0403_0839,0900 Seventh Street NW (IBEW),2015,In Compliance,900 7TH ST NW,IBEW HEADQUARTERS BUILDING LLC,2,Washington,DC,20001,2004,Office,Office,300218,318853.0,88,50.2,50.2,157.6,157.6,2143.0,6.7,7703.8,4691843.3,,38.90115602,-77.02227684,
2196,PM4367542,0127_0851,The Brawner Building,2015,In Compliance,0888 17TH ST NW,JOHN W BRAWNER TRUSTEE,2,Washington,DC,20006,1964,Office,Office,132548,126503.0,85,70.3,70.6,157.8,156.5,882.8,7.0,2225.0,1489537.1,38119.5931,38.90109849,-77.03977287,
2197,PM3641737,0088_0058,NAS Bldg,2015,In Compliance,2101 CONSTITUTION AVE NW,NATIONAL ACADEMY OF SCIENCES,2,Washington,DC,20007,1924,Office,Office,109303,173970.0,76,50.3,49.3,157.9,154.7,1440.4,8.3,4515.2,2564311.7,,38.89296694,-77.04764489,
2198,PM2482523,0711_0815,One Constitution Square,2015,In Compliance,1275 1ST ST NE,CS OFFICE ONE LLC,6,Washington,DC,20002,2010,Office,Office,350000,338645.0,91,50.3,50.3,158.1,158.1,2282.0,6.7,5965.4,4996124.7,,38.90697282,-77.00546476,
2199,PM3996137,0200_0026,AFL-CIO,2015,In Compliance,815 16TH ST NW,AFL & CIO TRUSTEES,2,Washington,DC,20006,1956,Office,Office,179490,260000.0,85,66.9,66.4,158.3,156.8,1808.9,7.0,1915.5,3212102.8,64351.058,38.90089025,-77.03608229,
2200,PM3633172,0486_0832,Fairfield Inn & Suites,2015,In Compliance,0500 H ST NW,RLJ III F WASHINGTON DC LLC,2,Washington,DC,20001,1986,Hotel,Hotel,111056,120000.0,73,63.9,62.8,158.9,155.3,833.0,6.9,7068.8,1544851.1,23992.03962,38.89966387,-77.01925301,
2201,PM1391419,0675_0855,899,2015,In Compliance,899 NORTH CAPITOL ST NE,UNION SQUARE 825 PROPERTY LP,6,Washington,DC,20002,1972,Office,Office,318096,314858.0,83,51.0,51.4,159.6,160.8,2143.6,6.8,6777.1,4683935.8,794.1893951000001,38.90110153,-77.00845004,
2202,PM3500466,0116_0077,1200 Nineteenth Street Benchmarking,2015,In Compliance,1200 19TH ST NW,1200 NINETEENTH STREET LLC,2,Washington,DC,20036,1964,Office,Office,321408,354926.0,90,56.8,56.1,159.7,157.5,2442.8,6.9,5972.9,4979713.8,31688.49897,38.9061145,-77.04387105,
2203,PM2986561,2674_1933,Unit Owners Association of DC USA Condo inc,2015,In Compliance,3100 14TH STREET NW,DC USA CONDOMINIUM,1,Washington,DC,20010,2009,Retail Store,Retail Store,918669,445917.0,90,54.3,54.6,159.8,160.1,3056.8,6.9,10725.3,6426369.1,22890.11942,38.92930823,-77.03298601,
2204,PM4556802,0030_0018,Washington DC RI,2015,In Compliance,801 NEW HAMPSHIRE AVE NW,CHATHAM WASHINGTON DC LLC,2,Washington,DC,20037,1973,Hotel,Hotel,98042,98042.0,23,75.2,75.5,160.0,158.5,698.7,7.1,3560.7,1114147.4,35730.812439999994,38.899855200000005,-77.05224877,
2205,PM4178736,0654_0039,Syphax Gardens,2015,Data Under Review by DOEE,0045 - 0049 P ST SW,DISTRICT OF COLUMBIA HOUSING AUTHORITY ,6,WASHINGTON,DC,20024,1960,Multifamily Housing,Multifamily Housing,,151944.0,33,92.8,95.3,160.1,159.8,1012.1,6.7,11158.7,1334328.7,95464.00074,38.87219273,-77.01163050000001,
2206,PM1419667,0286_0041,1250 Eye Street,2015,In Compliance,1250 I ST NW,IPERS EYE ST NW DC INC,2,Washington,DC,20005,1982,Office,Office,239325,187269.0,84,51.0,50.7,160.2,159.3,1279.3,6.8,1877.2,2800897.4,,38.90099549,-77.02923934,
2207,PM3630592,0247_0094,National Association for the Education of Young Children,2015,In Compliance,1313 L ST NW,NATIONAL ASSOCIATION FOR THE EDUCATION OF YOUNG CHILDREN,2,Washington,DC,20005,1984,Office,Office,118722,125000.0,82,51.2,51.2,160.6,160.8,856.0,6.8,810.9,1874203.3,,38.9040862,-77.03051133,
