,Primary_Key,DC_Real_Property_ID,Property_Name,Reporting_Year,Report_Status,Address_of_Record,Owner_of_Record,Ward,City,State,Postal_Code,Year_Built,Primary_Property_Type_Self_Selected,Primary_Property_Type_EPA_Calculated,Tax_Record_Floor_Area,Recorded_Building_Gross_Floor_Area,Energy_Star_Score,Site_EUI_KBTU_Ft,Weather_Normalized_Site_EUI_KBTU_Ft,Source_EUI_KBTU_Ft,Weather_Normalized_Source_EUI_KBTU_Ft,Total_GHG_Emissions_Metric_Tons_CO2e,Total_GHG_Emissions_Intensity_Kg_CO2e_Ft,Water_Use_All_Water_Sources_Kgal,Electricity_Use_Grid_Kwh,Natural_Gas_Use_Therms,Latitude,Longitude
12,PM6413618,3341_0812,Christian Media Corporation,2017,Data Under Review by DOEE,6200 2ND ST NW,NATIONAL CHILDRENS CENTER INC,4.0,WASHINGTON,DC,20011.0,1978,Office,Office,67199.0,67199.0,100,17.9,18.8,36.6,37.3,97.0,1.4,762.6,168115.2,6287.796557,38.96555994,-77.01396779999999
22,PM4673452,0494_0031,National Square,2017,Data Under Review by DOEE,0500  D ST SW,BIT INVESTMENT FIFTY-EIGHT LLC,6.0,WASHINGTON,DC,20024.0,2015,Office,Office,361741.0,475932.0,100,14.8,14.8,46.4,46.4,780.0,1.6,3661.4,2060656.8,,38.88465388,-77.01940441
32,PM3989484,0093_0146,Jemal's Dupont LLC,2017,Data Under Review by DOEE,1630 CONNECTICUT AVE NW,1630 CONNECTICUT LTD,2.0,WASHINGTON,DC,20009.0,1981,Office,Office,64517.0,73700.0,100,17.8,17.8,55.8,55.8,145.4,2.0,1189.5,384065.3,,38.91206182,-77.04524876
37,PM6266005,1669_0805,Boron,2017,Data Under Review by DOEE,5025 WISCONSIN AV NW,AMALGAMATED TRANSIT UNION,3.0,WASHINGTON,DC,20016.0,1982,Office,Office,61217.0,75706.0,100,22.6,24.3,57.6,59.3,161.7,2.1,338.1,359207.0,4851.450212,38.95577157,-77.08275067
60,PM3504833,1769_0031,"Jemal's Tower, LLC",2017,Data Under Review by DOEE,4001 BRANDYWINE ST NW,JEMAL'S TOWER LLC,3.0,WASHINGTON,DC,20016.0,1952,Office,Office,164868.0,110485.0,99,22.3,22.3,69.9,69.9,272.7,2.5,1715.7,720526.2,,38.95000411,-77.07938138
69,PM1071901,0099_0053,2001 M Street,2017,In Compliance,2001 M ST NW,POST OFFICE BOX ASSOCIATES LLC,2.0,WASHINGTON,DC,20036.0,1987,Office,Office,387242.0,312115.0,98,24.1,24.1,75.6,75.6,833.5,2.7,2127.2,2202227.4,,38.90617559,-77.04525321
92,PM4036707,2911_0004,Library of Congress,2017,Data Under Review by DOEE,1291 TAYLOR ST NW,PENN B RECREATION,4.0,WASHINGTON,DC,20542.0,1959,Office,Office,88808.0,93166.0,99,26.8,26.8,83.9,83.9,276.3,3.0,310.4,727664.4,159.3891065,38.94133892,-77.02849609
93,PM3994437,5772_1019,Annacostia Professional building,2017,Data Under Review by DOEE,2041 MARTIN LUTHER KING JR AVE SE,ANACOSTIA PROFESSIONAL BUILDING REVOCABLE TRUST,8.0,WASHINGTON,DC,20020.0,1957,Office,Office,74967.0,74968.0,98,52.1,56.9,84.1,89.2,268.5,3.6,3177.0,309370.9,28509.970210000003,38.86593013,-76.98982866
108,PM6279989,0090_0033,American Geophysical Union,2017,Data Under Review by DOEE,2000 FLORIDA AVE NW,AMERICAN GEOPHYSICAL UNION,2.0,WASHINGTON,DC,20009.0,1994,Office,Office,88150.0,71380.0,95,33.3,36.5,88.0,98.0,230.9,3.2,912.9,530683.6,5663.776642,38.91468757,-77.04525227
157,PM3262071,0859_0837,609 H STREET,2017,Data Under Review by DOEE,601 H ST NE,609 H ST NE BLDG PJV LLC,6.0,WASHINGTON,DC,20002.0,1987,Office,Office,110281.0,77158.0,98,31.2,31.2,97.9,97.9,267.0,3.5,1378.4,705316.6,,38.90002407,-76.99782309999999
159,PM3993733,0674_0854,"Sentinel Square II, LLC",2017,Data Under Review by DOEE,1050 1ST ST NE,SENTINEL SQUARE II L L C,6.0,WASHINGTON,DC,20002.0,2014,Office,Office,341600.0,280363.0,99,31.3,31.3,98.2,98.2,972.7,3.5,2276.8,2569995.1,,38.90344241,-77.00622308
174,PM3989936,0218_0014,Jemal's Orme LLC,2017,In Compliance,1424 K ST NW,JEMAL'S ORME LLC,2.0,WASHINGTON,DC,20005.0,1910,Office,Office,51431.0,51400.0,94,43.7,47.6,100.6,104.6,197.2,3.8,1140.4,394215.7,9030.386595,38.90219791,-77.03293439
205,PM3301503,0697_0045,Half Street,2017,In Compliance,1015 HALF ST SE,HALF STREET SE LLC,6.0,WASHINGTON,DC,20003.0,2011,Office,Office,400000.0,424076.0,97,33.6,33.6,105.5,105.5,1581.3,3.7,2729.8,4177759.3,,38.87822921,-77.00781299
218,PM3353556,0403_0838,800 K Street,2017,Data Under Review by DOEE,0800 K ST NW,TMG 800 K STREET LLC,2.0,WASHINGTON,DC,20001.0,1989,Office,Office,495847.0,473143.0,98,34.8,34.8,109.4,109.4,1828.5,3.9,2350.5,4831031.1,,38.90180377,-77.02247845
239,PM3048381,0140_0876,1819 L Street NW,2017,In Compliance,1819 L ST NW,SASAKAWA PEACE FOUNDATION,2.0,WASHINGTON,DC,20036.0,1982,Office,Office,70262.0,52873.0,90,35.9,35.9,112.6,112.6,210.3,4.0,452.0,555688.7,,38.90401049,-77.04246762
240,PM3067027,0163_0051,UFCW Building,2017,In Compliance,1775 K ST NW,UNITED FOOD AND COMMERCIAL WORKERS INTERNATIONAL UNION,2.0,WASHINGTON,DC,20006.0,1969,Office,Office,214784.0,214784.0,96,38.0,38.3,113.0,113.3,867.8,4.0,2478.2,2202556.4,6425.2261530000005,38.90288991,-77.04127548
255,PM1641990,0126_0852,The Farragut Building,2017,In Compliance,0900 17TH ST NW,GNAREI 1 FARRAGUT LLC,2.0,WASHINGTON,DC,20006.0,1962,Office,Office,200034.0,160109.0,96,43.8,45.9,115.0,116.7,678.1,4.2,3352.7,1551298.3,17130.16649,38.90174323,-77.03974025
257,PM2977909,0574_0810,National Association of Letter Carriers,2017,In Compliance,100 INDIANA AVE NW,NATIONAL ASSOCIATION OF LETTER CARRIERS,6.0,WASHINGTON,DC,20001.0,1951,Office,Office,101093.0,87757.0,87,44.9,46.5,115.2,115.6,374.3,4.3,1239.8,837487.4,10794.13528,38.89333317,-77.01252649
265,PM1229423,0185_0829,Army Navy Club,2017,In Compliance,1627 I ST NW,WRIT ANC LLC,2.0,WASHINGTON,DC,20006.0,1913,Office,Office,80599.0,118244.0,91,37.4,37.4,117.4,117.4,490.6,4.1,5113.8,1296166.9,,38.90172986,-77.03813748
271,PM2938280,0100_0103,American Society of Hematology Building,2017,In Compliance,2021 L ST NW,ASH 2021 L LLC,2.0,WASHINGTON,DC,20036.0,1969,Office,Office,77376.0,81032.0,93,41.4,42.6,117.8,118.7,344.9,4.3,454.3,844106.0,4784.214805,38.90402145,-77.04565168
281,PM1189000,0538_0873,One Independence Square,2017,Data Under Review by DOEE,250 E ST SW,WELLS REIT-INDEPENDENCE SQUARE LLC,6.0,WASHINGTON,DC,20024.0,1991,Office,Office,560163.0,378045.0,95,37.9,37.9,119.0,119.0,1588.9,4.2,3156.7,4197906.1,,38.88300325,-77.01492370000001
282,PM3989931,0185_0823,City Building - 1612 K Street,2017,In Compliance,1612 K ST NW,LEAF LLC,2.0,WASHINGTON,DC,20006.0,1958,Office,Office,83495.0,79495.0,94,42.9,43.2,119.1,117.4,344.0,4.3,1128422.4,825928.6,5908.49099,38.90219141,-77.03753001
289,PM1191010,0166_0032,1701 Pennsylvania Ave.,2017,Data Under Review by DOEE,1701 PENNSYLVANIA AV NW,ATLANTIC FREEHOLDS,2.0,WASHINGTON,DC,20006.0,1962,Office,Office,263216.0,220603.0,76,51.7,53.0,120.1,120.4,1005.3,4.6,180976.0,2431888.3,31002.784610000002,38.89950761,-77.03977867
295,PM19680,0213_0017,The National Housing Center Corporation,2017,Data Under Review by DOEE,1201 15TH ST NW,NATIONAL HOUSING CENTER CORPORATION,2.0,WASHINGTON,DC,20005.0,1973,Office,Office,125815.0,279791.0,81,48.6,49.9,120.9,121.5,1260.5,4.5,2493.9,3275614.3,24133.06013,38.90602078,-77.03397505
298,PM3685967,0222_0024,1401 New York Ave,2017,Data Under Review by DOEE,1401 NEW YORK AVE NW,LSREF2 WINDMILL REO NEW YORK LLC,2.0,WASHINGTON,DC,20005.0,1982,Office,Office,278364.0,231140.0,90,38.7,38.7,121.5,121.5,991.8,4.3,3145.1,2620246.0,,38.89965,-77.03229744
299,PM1368706,0118_0818,1901 Pennsylvania Ave,2017,In Compliance,1901 PENNSYLVANIA AVE NW,WASHREIT 1901 PENNSYLVANIA AVE TRUSTEE LLC,2.0,WASHINGTON,DC,20006.0,1960,Office,Office,113200.0,109909.0,94,43.2,43.9,121.7,121.9,484.3,4.4,1442.5,1177940.3,7243.843836,38.90068906,-77.04379751
300,PM3306991,0185_0812,"1600 K St., NW",2017,In Compliance,1600 K ST NW,1600 CAPITAL ASSOCIATES LLC,2.0,WASHINGTON,DC,20006.0,1950,Office,Office,89511.0,93176.0,92,43.6,44.4,121.7,122.2,411.3,4.4,2021.0,992179.8,6736.999901,38.90213964,-77.03687333
303,PM3511931,0330_0800,HU Service Building,2017,In Compliance,1000 FLORIDA AV NW,HOWARD UNIVERSITY  (LAND ONLY),1.0,WASHINGTON,DC,20001.0,1930,Office,Office,218339.0,233173.0,95,61.3,67.7,122.3,127.2,1132.6,4.9,6469.3,1895870.1,78142.53211,38.92009841,-77.02631092
305,PM1196655,0220_0066,City Center,2017,Incomplete Report,1401 H ST NW,TREA 1401 LLC,2.0,WASHINGTON,DC,20005.0,1993,Office,Office,480132.0,374817.0,77,43.7,43.7,122.4,122.4,1659.7,4.4,3530.3,4801216.2,,38.90050099,-77.03242418
306,PM4007724,0246_0017,Krasner Building,2017,In Compliance,1325 MASSACHUSETTS AVE NW,NATCA MEMBERSHIP INVESTMENT INC,2.0,WASHINGTON,DC,20005.0,1966,Office,Office,67394.0,67394.0,90,52.9,56.3,122.4,125.7,314.0,4.7,1223.1,632373.7,14053.740580000002,38.90542073,-77.0303785
309,PM2736239,0516_0057,425 EYE,2017,In Compliance,425 I ST NW,425 EYE STREET NW LP,6.0,WASHINGTON,DC,20001.0,1973,Office,Office,488592.0,376559.0,99,39.2,39.2,123.2,123.2,1638.5,4.4,6126.0,4329016.8,,38.90171237,-77.01694407
322,PM6254160,0386_0001,370 L'Enfant,2017,In Compliance,0901 D ST SW,CIM URBAN REIT PROPERTIES V LLC,6.0,WASHINGTON,DC,20260.0,1987,Office,Office,535757.0,407321.0,96,41.9,42.8,124.2,124.0,1809.7,4.4,4091.0,4582129.4,14184.4505,38.88506002,-77.02474986
325,PM1188995,0285_0048,1201 Eye Street,2017,In Compliance,1201 I ST NW,1215 I STREET NW ASSOCS LTD PARTNERSHIP,2.0,WASHINGTON,DC,20005.0,2001,Office,Office,274387.0,305868.0,90,39.6,39.6,124.5,124.5,1344.8,4.4,2037.4,3553038.6,,38.90163885,-77.02856162
336,PM4352773,0111_0082,The Caravel,2017,Data Under Review by DOEE,1601 CONNECTICUT AVE NW,MICHAEL KAIN,2.0,WASHINGTON,DC,20009.0,1971,Office,Office,52562.0,45065.0,88,43.4,42.8,125.8,121.8,203.9,4.5,1408.7,507334.4,2240.168561,38.91138385,-77.04409107
340,PM1526560,1661_0813,Chevy Chase - Office,2017,In Compliance,5335 WISCONSIN AV NW,CLPF-CC PAVILION LP,3.0,WASHINGTON,DC,20015.0,1990,Office,Office,894921.0,204621.0,95,40.3,40.3,126.4,126.4,914.1,4.5,17.2,2415067.6,,38.96077377,-77.08484663
347,PM1411897,0184_0074,1601 K Street,2017,In Compliance,1601 K ST NW,PPF OFF 1601 K ST LLC,2.0,WASHINGTON,DC,20006.0,2005,Office,Office,276579.0,231860.0,91,40.6,41.3,127.4,129.5,1043.2,4.5,2110.4,2756141.5,,38.90300234,-77.03689296
350,PM2482523,0711_0815,One Constitution Square,2017,In Compliance,1275 1ST ST NE,CS OFFICE ONE LLC,6.0,WASHINGTON,DC,20002.0,2010,Office,Office,350000.0,338645.0,96,41.0,41.0,128.6,128.6,1538.9,4.5,4036.8,4065937.1,,38.90697282,-77.00546476
357,PM1347006,0248_0075,Franklin Court,2017,In Compliance,1330 L ST NW,FRANKLIN COURT INC,2.0,WASHINGTON,DC,20005.0,1991,Office,Office,653028.0,538084.0,92,41.5,41.9,130.3,131.6,2477.6,4.6,4941.2,6544580.7,87.21,38.90342407,-77.03123239
363,PM3498438,0217_0051,1401 K St NW,2017,In Compliance,1401 K ST NW,FP 1401 K LLC,2.0,WASHINGTON,DC,20005.0,1929,Office,Office,135642.0,129594.0,88,44.8,44.8,131.5,131.5,611.2,4.7,1776.3,1533359.0,5800.836479,38.90293183,-77.03231633
364,PM1082453,0225_0033,The Willard Office Building,2017,Data Under Review by DOEE,1401 - 1415 PENNSYLVANIA AV NW,WILLARD ASSOCIATES,2.0,WASHINGTON,DC,20004.0,1986,Office,Office,349863.0,262770.0,90,41.9,41.9,131.6,131.6,1222.1,4.7,8594.2,3228708.7,,38.89716073,-77.03226635
365,PM1346869,0286_0819,1201& 1225  New York Ave.,2017,In Compliance,1225 NEW YORK AV NW,1201-1225 NEW YORK AVE SPE LLC,2.0,WASHINGTON,DC,20005.0,1993,Office,Office,143753.0,510400.0,91,44.7,45.6,131.6,134.2,2407.0,4.7,4826.9,6058569.4,21158.233930000002,38.90077367,-77.02897906
371,PM1326957,0137_0056,1800 Massachusetts Avenue NW (SEIU),2017,Data Under Review by DOEE,1800 - 1824 MASSACHUSETTS AV NW,1800 MASSACHUSETTS AVENUE CORP,2.0,WASHINGTON,DC,20036.0,1978,Office,Office,185604.0,217543.0,93,42.2,42.2,132.6,132.6,1019.2,4.7,2711.0,2692792.7,,38.90878688,-77.04226616
374,PM6342583,0457_0036,Grand Lodge Of IOOF,2017,Data Under Review by DOEE,419 7TH ST NW,GRAND LODGE OF IOOF,2.0,WASHINGTON,DC,20004.0,1917,Office,Office,64495.0,74468.0,67,42.4,41.5,133.0,130.3,350.0,4.7,229.7,924746.9,,38.89543232,-77.02158076
376,PM1873494,0198_0845,The Executive Building,2017,In Compliance,1030 15TH ST NW,UNIZO REAL ESTATE DC FIVE LLC,2.0,WASHINGTON,DC,20005.0,2008,Office,Office,340022.0,352256.0,95,44.3,44.5,133.4,132.6,1676.0,4.8,3004.2,4291451.3,9736.009681,38.90349979,-77.03487253
377,PM1069662,0675_0853,999 North Capitol Street NE,2017,In Compliance,999 NORTH CAPITOL ST NE,UNION SQUARE 941 PROPERTY LP,6.0,WASHINGTON,DC,20002.0,1973,Office,Office,322375.0,321544.0,95,43.6,44.2,133.5,135.0,1524.3,4.7,3389.0,3956531.6,5041.480021,38.90202876,-77.0085478
384,PM3928873,0183_0107,IUOE,2017,In Compliance,1125 17TH ST NW,INTERNATIONAL UNION OPERATING ENGINEERS,2.0,WASHINGTON,DC,20036.0,1956,Office,Office,89635.0,95981.0,87,53.9,56.6,134.8,136.4,482.4,5.0,1022.5,1051541.8,15895.83854,38.90450718,-77.03810652
389,PM1391419,0675_0855,899 North Capitol Street (Union Square),2017,In Compliance,899 NORTH CAPITOL ST NE,UNION SQUARE 825 PROPERTY LP,6.0,WASHINGTON,DC,20002.0,1972,Office,Office,318096.0,314317.0,92,43.4,43.5,135.7,135.8,1509.0,4.8,3897.9,3972275.7,1032.433977,38.90110153,-77.00845004
390,PM1419667,0286_0041,1250 Eye Street,2017,In Compliance,1250 I ST NW,IPERS EYE ST NW DC INC,2.0,WASHINGTON,DC,20005.0,1982,Office,Office,239325.0,193051.0,88,43.3,44.7,136.0,140.2,927.4,4.8,2768.4,2450166.9,,38.90099549,-77.02923934
392,PM27448,0085_0060,The Millennium Building,2017,In Compliance,1909 K ST NW,NINA JO ASSOCIATES LLC,2.0,WASHINGTON,DC,20006.0,1973,Office,Office,239437.0,242937.0,94,43.5,43.5,136.5,135.5,1171.9,4.8,2902.6,3062981.5,,38.90281745,-77.04408634
393,PM4380886,0136_0035,11 Dupont Circle,2017,In Compliance,0011 DUPONT CIR NW,FP 11 DUPONT CIRCLE LLC,2.0,WASHINGTON,DC,20036.0,1974,Office,Office,171077.0,160898.0,87,43.6,43.6,136.7,136.7,777.5,4.8,5136.1,2051678.0,,38.91038112,-77.04241573
395,PM6247638,0404_0817,American Public Health Association,2017,In Compliance,0800 I ST NW,AMERICAN PUBLIC HEALTH ASSOC,2.0,WASHINGTON,DC,20001.0,1999,Office,Office,61006.0,62466.0,85,43.7,44.5,137.2,139.7,302.7,4.8,236.5,799872.3,,38.90067469,-77.02324969
398,PM1390727,0186_0810,Chanin Building - 815 Connecticut,2017,Data Under Review by DOEE,0815 CONNECTICUT AV NW,BPP CONNECTICUT AVE LLC,2.0,WASHINGTON,DC,20006.0,1964,Office,Office,269619.0,231784.0,92,49.3,50.2,137.4,137.3,1156.3,5.0,5226.3,2782409.7,19417.68952,38.90113082,-77.03797978
399,PM2371512,0343_0830,1050 K Street,2017,Incomplete Report,1050 K ST NW,K-11 PARTNERS LLC,2.0,WASHINGTON,DC,20001.0,2005,Office,Office,151749.0,153440.0,93,43.8,43.8,137.4,137.4,744.7,4.9,1599.8,1967591.9,,38.90229303,-77.02670014
400,PM3306992,0116_0850,1233 20th Street,2017,In Compliance,1233-1243  20TH ST NW,JBG/1233 20TH STREET LLC,2.0,WASHINGTON,DC,20036.0,1984,Office,Office,222726.0,167330.0,92,43.8,43.8,137.6,137.6,813.6,4.9,1971.0,2149596.7,,38.90671125,-77.04449747
402,PM2236387,0105_0844,CTTWB,2017,In Compliance,1815 - 1821 PENNSYLVANIA AVE NW,CTTWB ASSOCIATES LP,2.0,WASHINGTON,DC,20006.0,2006,Office,Office,311730.0,354331.0,92,43.9,43.0,137.7,135.1,1724.1,4.9,4057.1,4555231.3,,38.90050243,-77.04229271
406,PM2590132,1190_0842,1050 Thomas Jefferson Street NW,2017,Data Under Review by DOEE,1050 THOMAS JEFFERSON ST NW,KIRSTEIN GERWIRZ AND ABEL,2.0,WASHINGTON,DC,20007.0,1980,Office,Office,287032.0,206542.0,97,44.0,44.0,138.1,138.1,1008.0,4.9,4382.9,2663117.0,,38.90388654,-77.06040573
409,PM2686138,0452_0032,650 Mass Ave,2017,In Compliance,0628-0650 MASSACHUSETTS AV,BOP 650 MASS LLC,2.0,WASHINGTON,DC,20001.0,1989,Office,Office,465821.0,346459.0,90,44.1,44.1,138.5,138.5,1695.5,4.9,5133.2,4479655.3,,38.90166173,-77.02125073
411,PM4989400,0159_0855,UNIZO DC One Real Estate (Longfellow Building),2017,In Compliance,1201 CONNECTICUT AV,UNIZO REAL ESTATE ONE LLC,2.0,WASHINGTON,DC,20036.0,1941,Office,Office,202675.0,202675.0,87,44.9,45.6,138.8,141.0,997.3,4.9,2065.6,2604786.4,2144.958853,38.90609489,-77.04080359
412,PM1273006,0252_0079,1325 G Street,2017,In Compliance,1325 G ST NW,GSTDC 72 OWNER LLC,2.0,WASHINGTON,DC,20005.0,1969,Office,Office,448066.0,333484.0,89,57.4,60.6,138.9,140.5,1742.6,5.2,4101.6,3676664.2,66077.92292000001,38.89872502,-77.03099182
413,PM1328161,0375_0125,Victor Building - 252510,2017,In Compliance,0750 9TH ST NW,750 NINTH STREET LLC,2.0,WASHINGTON,DC,20001.0,2000,Office,Office,322040.0,344081.0,91,44.2,44.3,138.9,139.1,1687.9,4.9,5545.6,4459479.3,,38.89951066,-77.02440803
416,PM2946167,0181_0850,Benjamin T. Rome,2017,In Compliance,1619 MASSACHUSETTS AV,JOHNS HOPKINS UNIVERSITY,2.0,WASHINGTON,DC,20036.0,1961,Office,Office,101369.0,64843.0,89,59.8,63.6,139.0,141.5,342.7,5.3,863.4,693496.8,15100.3754,38.9080435,-77.03755546
417,PM1071476,0139_0816,1250 Conn Ave,2017,In Compliance,1250 CONNECTICUT AV NW,TRIZECHAHN 1250C/2401P LLC,2.0,WASHINGTON,DC,20036.0,1964,Office,Office,232204.0,178185.0,90,56.6,60.0,139.1,141.5,928.5,5.2,2864.1,1989272.2,33059.61522,38.90709561,-77.04208511
418,PM4565989,0628_0895,american federation of government employee,2017,In Compliance,0080 F ST NW,AMERICAN FEDERATION OF GOVERNMENT EMPLOYEES,6.0,WASHINGTON,DC,20001.0,1986,Office,Office,142975.0,133000.0,81,44.3,44.3,139.2,139.2,653.9,4.9,2813.0,1727652.1,,38.8970746,-77.01079868
421,PM3857228,0252_0078,717 14th Street,2017,In Compliance,0717 14TH ST NW,717 14TH STREET LLC,2.0,WASHINGTON,DC,20005.0,1927,Office,Office,147884.0,124368.0,85,44.5,45.1,139.7,141.7,613.6,4.9,1792.7,1621235.0,,38.89890674,-77.03156082
422,PM1034332,0197_0854,American Chemical Society - 1550 Building,2017,In Compliance,1550 M ST NW,AMERICAN CHEMICAL SOCIETY,2.0,WASHINGTON,DC,20005.0,1988,Office,Office,96839.0,85277.0,91,44.5,45.4,139.8,142.7,421.3,4.9,1382.9,1113071.0,,38.90536697,-77.03572636
424,PM4624422,0222_0814,1445 NY Ave,2017,In Compliance,1445 NEW YORK AV NW,PONTE GADEA OF WASHINGTON LLC,2.0,WASHINGTON,DC,20005.0,1897,Office,Office,177195.0,205656.0,87,44.8,45.7,140.6,143.5,1021.4,5.0,1824.1,2698616.1,,38.89935994,-77.03292433
429,PM5812782,0701_0853,55 M Street Office & Retail,2017,In Compliance,55 M ST SE,HINES GLOBAL REIT 55 M STREET LLC,6.0,WASHINGTON,DC,20003.0,2009,Office,Office,393035.0,295059.0,94,46.7,46.6,141.1,140.6,1483.3,5.0,4369.0,3807407.9,7949.02766,38.87627832,-77.00682398
430,PM2840677,0291_0037,1201 Pennsylvania Ave.,2017,In Compliance,1201 PENNSYLVANIA AV NW,1201 LAND LP,2.0,WASHINGTON,DC,20004.0,1980,Office,Office,642329.0,429348.0,75,45.0,46.4,141.3,145.8,2143.9,5.0,7565.8,5664221.7,,38.89600299,-77.02838287
434,PM1620667,0675_0832,77 K Street,2017,In Compliance,77 K ST NE,77 K STREET TOWER LLC,6.0,WASHINGTON,DC,20002.0,2008,Office,Office,346026.0,338929.0,94,46.7,47.0,142.3,142.6,1715.0,5.1,3788.2,4432862.2,6994.8754930000005,38.90211582,-77.00638206
435,PM1431050,0162_0821,1707 L Street,2017,In Compliance,1707 L ST NW,1709 L STREET NW LLC,2.0,WASHINGTON,DC,20036.0,1963,Office,Office,165374.0,109926.0,93,55.2,56.6,142.4,142.3,579.1,5.3,1499.7,1302729.9,16197.4091,38.9040518,-77.03922666
438,PM4369395,1191_0071,The Foundry Building,2017,In Compliance,1055 THOMAS JEFFERSON ST NW,JBG FOUNDRY OFFICE 200,2.0,WASHINGTON,DC,20007.0,1975,Office,Office,331720.0,244850.0,87,45.6,46.4,143.1,145.6,1238.1,5.1,4059.0,3270302.6,60.00000197,38.90393028,-77.05929023
440,PM3987925,0221_0818,Willcap Holdings LLC,2017,In Compliance,0734 15TH ST NW,WILLCAP HOLDINGS LLC,2.0,WASHINGTON,DC,20005.0,1936,Office,Office,87574.0,78495.0,85,56.0,58.6,143.2,143.8,416.9,5.3,639.5,928999.9,12296.26728,38.899631299999996,-77.03406515
442,PM3630592,0247_0094,National Association for the Education of Young Children,2017,In Compliance,1313 L ST NW,NATIONAL ASSOCIATION FOR THE EDUCATION OF YOUNG CHILDREN,2.0,WASHINGTON,DC,20005.0,1984,Office,Office,118722.0,125000.0,87,45.7,45.7,143.4,143.4,633.2,5.1,925.6,1672882.2,,38.9040862,-77.03051133
444,PM1029531,0457_0039,600 E Street,2017,In Compliance,600 E ST NW,6TH & E ASSOCIATES LLC,2.0,WASHINGTON,DC,20004.0,1976,Office,Office,438018.0,356387.0,91,45.8,45.8,143.7,143.7,1809.3,5.1,3890.4,4780345.6,,38.89578709,-77.02049174
448,PM1030284,0050_0086,1255 23rd Street,2017,In Compliance,1225 23RD ST NW,CAPITOL 50 ASSOCIATES,2.0,WASHINGTON,DC,20037.0,1982,Office,Office,83314.0,358737.0,92,45.9,45.9,144.0,144.0,1825.0,5.1,4077.3,4821829.3,,38.90640247,-77.04978884
452,PM1061926,0162_0092,02217 - 1100 17th Street NW,2017,In Compliance,1100 17TH ST NW,LIBERTY 1100 17TH STREET LP,2.0,WASHINGTON,DC,20036.0,1962,Office,Office,157120.0,151599.0,88,57.1,59.1,144.9,145.2,839.5,5.5,2670.1,1805882.5,25002.26598,38.90417969,-77.03875448
453,PM1583321,0625_0061,Republic Square - 25 Mass Ave,2017,In Compliance,25 MASSACHUSETTS AVE NW,T-C REPUBLIC SQUARE OWNER LLC,6.0,WASHINGTON,DC,20001.0,2006,Office,Office,551388.0,402012.0,91,47.2,47.2,145.4,145.4,2074.0,5.2,4869.4,5402581.5,5494.13019,38.89846544,-77.01041674
455,PM1034322,0197_0853,American Chemical Society - Headquarters,2017,In Compliance,1155 16TH ST NW,AMERICAN CHEMICAL SOCIETY,2.0,WASHINGTON,DC,20036.0,1959,Office,Office,144462.0,115470.0,89,67.0,71.2,146.3,150.8,653.5,5.7,1184.1,1230744.9,35336.12085,38.90536939,-77.03605573
457,PM2279187,0217_0047,1025 Vermont Avenue,2017,In Compliance,1025 VERMONT AVE NW,1025 VERMONT AVENUE LLC,2.0,WASHINGTON,DC,20005.0,1964,Office,Office,171359.0,109878.0,87,52.8,55.0,146.4,148.7,584.7,5.3,1805.2,1401045.5,10246.42378,38.9033146,-77.03293757
458,PM1180478,0289_0830,0601 Thirteenth Street NW (Homer),2017,In Compliance,0601 13TH ST NW,S KANN SONS COMPANY,2.0,WASHINGTON,DC,20005.0,1990,Office,Office,678600.0,604301.0,85,46.6,49.3,146.5,154.7,3126.8,5.2,6363.9,8261068.2,,38.89814115,-77.02926284
459,PM6268144,0494_0859,Carbon,2017,In Compliance,0501 SCHOOL ST SW,501 SCHOOL ASSOCIATES LIMITED PARTNERSHIP,6.0,WASHINGTON,DC,20024.0,1988,Office,Office,119720.0,83620.0,80,46.8,46.8,147.1,147.1,434.5,5.2,643.9,1148059.9,,38.88414831,-77.01912790000002
460,PM1268800,0196_0035,National Education Association,2017,In Compliance,1201 16TH ST NW,NATIONAL EDUCATION ASSOCIATION OF THE UNITED STATE,2.0,WASHINGTON,DC,20036.0,1991,Office,Office,311715.0,394087.0,92,59.9,62.7,147.6,149.6,2237.6,5.7,3976.1,4680973.1,76397.01715,38.90609858,-77.0357194
465,PM5826641,0183_0105,William Calomiris Building,2017,Data Under Review by DOEE,1112 16TH ST NW,GWC DISTRICT RESIDENTIAL LLC,2.0,WASHINGTON,DC,20036.0,1940,Office,Office,58049.0,62100.0,80,67.5,67.5,148.6,148.6,356.2,5.7,1806.1,677303.2,18789.15422,38.904262700000004,-77.03696031
466,PM5924418,0859_0839,645 H Street,2017,In Compliance,645 H ST NE,U S REIF 645 H STREET WASHINGTON DC LLC,6.0,WASHINGTON,DC,20002.0,1987,Office,Office,77521.0,88886.0,94,49.1,49.3,148.7,147.3,470.8,5.3,1146.8,1211232.4,2327.118734,38.89998223,-76.99645586
467,PM4014135,0127_0048,Intrepid Eye Street,2017,In Compliance,1720 I ST NW,ROBERT ARTHUR,2.0,WASHINGTON,DC,20006.0,1967,Office,Office,72545.0,72545.0,81,54.8,56.2,148.8,148.2,394.2,5.4,1136.6,928169.6,8077.250012,38.90103339,-77.04047444
471,PM1378102,0405_0026,799 9th street,2017,In Compliance,0799 9TH ST NW,BOP 799 9TH LLC,2.0,WASHINGTON,DC,20001.0,2001,Office,Office,215686.0,210645.0,86,47.5,47.5,149.1,149.1,1109.6,5.3,3574.4,2931524.2,,38.89964905,-77.02329350000001
472,PM1427108,0327_0841,Potomac Center South,2017,In Compliance,550 12TH ST SW,POTOMAC CENTER CF LLC,6.0,WASHINGTON,DC,20024.0,2002,Office,Office,539713.0,443078.0,90,47.5,47.5,149.1,149.1,2334.3,5.3,4040.4,6167171.3,,38.88326689,-77.02751086
473,PM1257639,0164_0035,Blake Building,2017,In Compliance,1025 CONNECTICUT AV NW,BLAKE DEVELOPMENT COMPANY,2.0,WASHINGTON,DC,20036.0,1967,Office,Office,466690.0,353236.0,90,55.7,58.4,149.2,152.7,1931.9,5.5,5314.1,4491512.4,43650.182810000006,38.90359373,-77.03933901
474,PM3048393,0220_0065,1444 I Street NW,2017,In Compliance,1444 I ST NW,LIVE OAK REALTY INC,2.0,WASHINGTON,DC,20005.0,1983,Office,Office,81608.0,74756.0,72,53.4,55.7,149.2,152.9,404.6,5.4,1589.2,976568.0,6592.618424,38.90102752,-77.03274929
477,PM1071004,0218_0079,1400 K Street,2017,In Compliance,1400 K ST NW,TRIZECHAHN LLC - 1400 K STREET NW,2.0,WASHINGTON,DC,20005.0,1982,Office,Office,292090.0,212651.0,93,48.6,48.7,149.4,149.4,1127.6,5.3,2467.2,2931495.8,3404.9839770000003,38.90218344,-77.03228197
478,PM1421555,0157_0850,Bernstein Offit Building,2017,In Compliance,1717 MASSACHUSETTS AV NW,THE JOHN HOPKINS UNIVERSITY,2.0,WASHINGTON,DC,20036.0,1963,Office,Office,147542.0,122460.0,88,67.6,71.8,149.4,151.8,705.5,5.8,1440.2,1346283.7,36893.03957,38.90872163,-77.03950985
480,PM3353559,1299_1026,"JBG/2121 Wisconsin, L.L.C.",2017,In Compliance,2121 WISCONSIN AVE NW,JBG 2121 WISCONSIN LLC,3.0,WASHINGTON,DC,20007.0,1961,Office,Office,124930.0,122884.0,80,53.0,54.2,149.7,150.4,665.8,5.4,1107.0,1620971.7,9843.999808,38.91854598,-77.06970016
481,PM3353558,1299_1027,"JBG/2115 Wisconsin, L.L.C.",2017,In Compliance,2115 WISCONSIN AVE NW,JBG 2115 WISCONSIN LLC,3.0,WASHINGTON,DC,20007.0,1987,Office,Office,397633.0,208052.0,89,47.7,48.1,149.8,151.1,1100.9,5.3,1972.0,2908703.6,,38.91873543,-77.06908193
482,PM3957505,1025_0811,Maritime Plaza-1,2017,Data Under Review by DOEE,1201 M ST SE,WASHINGTON GAS LIGHT CO,6.0,WASHINGTON,DC,20003.0,2000,Office,Office,207338.0,207338.0,92,55.3,56.4,149.9,149.1,1135.4,5.5,792.4,2669999.7,23506.95161,38.87613896,-76.98934998
485,PM3306993,1191_0072,1025 Thomas Jefferson Street,2017,In Compliance,1025 THOMAS JEFFERSON ST NW,1025 THOMAS JEFFERSON INC,2.0,WASHINGTON,DC,20007.0,1984,Office,Office,451939.0,365917.0,92,47.9,47.9,150.5,150.5,1945.8,5.3,4360.6,5140818.2,,38.90333924,-77.05929918
486,PM2729439,0127_0055,800 17TH ST,2017,In Compliance,800 17TH ST NW,T C 800 17TH STREET NW OWNER LLC,2.0,WASHINGTON,DC,20006.0,2010,Office,Office,431570.0,390731.0,84,48.0,48.0,150.6,150.6,2078.4,5.3,5828.8,5491232.3,,38.90077894,-77.03974474
491,PM3551424,0072_0075,02273 - 2100 M Street NW,2017,In Compliance,2100 M ST NW,LIBERTY 2100 M STREET LP,2.0,WASHINGTON,DC,20037.0,1969,Office,Office,376487.0,286773.0,78,48.9,50.4,150.9,155.7,1534.3,5.4,4975.8,4004412.5,3515.065789,38.90487202,-77.0470064
492,PM1184444,0494_0032,400 Virginia Avenue,2017,In Compliance,0400 VIRGINIA AV SW,400 VIRGINIA AVENUE LLC,6.0,WASHINGTON,DC,20024.0,1984,Office,Office,304209.0,252289.0,88,48.1,48.9,151.0,153.5,1346.3,5.3,3091.5,3556858.1,,38.88424946,-77.01816764
493,PM1707265,0127_0053,01270053_1776 I St NW,2017,In Compliance,1776 I ST NW,1776 EYE SPE LLC,2.0,WASHINGTON,DC,20006.0,1988,Office,Office,293324.0,248690.0,89,48.1,48.1,151.1,151.1,1327.9,5.3,4967.6,3508475.9,,38.90109821,-77.04136516
494,PM1268754,0318_0032,1100 New York Avenue,2017,Incomplete Report,1110 NEW YORK AV NW,AZ JH REIT DC LP,2.0,WASHINGTON,DC,20005.0,1991,Office,Office,563484.0,580706.0,92,48.4,48.8,151.4,152.7,3108.5,5.4,10726.2,8190161.9,1614.6208880000001,38.90067675,-77.027446
495,PM1205203,0184_0071,"1667 K Street, NW",2017,In Compliance,1667 K ST NW Unit: 900,JAMES CAMPBELL COMPANY LLC,2.0,WASHINGTON,DC,20036.0,1983,Office,Office,257466.0,214759.0,85,48.3,49.2,151.8,154.4,1151.8,5.4,2601.6,3043123.6,,38.90325523,-77.03818170000001
496,PM3858497,0117_0023,1146 19th Street,2017,In Compliance,1146 19TH ST NW,1146 19TH LLC,2.0,WASHINGTON,DC,20036.0,1986,Office,Office,61506.0,57523.0,82,48.4,48.2,151.8,151.4,308.6,5.4,1559.9,815268.9,,38.90512827,-77.04384358
497,PM1544020,0406_0026,505 9th Street,2017,Data Under Review by DOEE,505 9TH ST NW,500 8TH STREET PR LLC,2.0,WASHINGTON,DC,20004.0,2007,Office,Office,302601.0,347262.0,71,54.3,54.9,152.0,153.6,1910.5,5.5,9073.1,5524255.9,5.7199506,38.89653301,-77.02325138
498,PM1257644,0142_0825,Northwestern Building,2017,In Compliance,1800 G ST NW,NORTHWESTERN DEVELOPMENT CO,2.0,WASHINGTON,DC,20006.0,1965,Office,Office,813848.0,737365.0,88,57.2,59.8,152.2,156.2,4119.7,5.6,10709.1,9518195.6,97346.28442000001,38.89815735,-77.04194505
499,PM4008037,0163_0056,1717 K St NW,2017,In Compliance,1000 CONNECTICUT AV,CONNECTICUT & K ASSOCIATES LLC,2.0,WASHINGTON,DC,20036.0,2012,Office,Office,430428.0,406131.0,90,48.5,48.5,152.3,152.3,2185.5,5.4,3855.8,5774040.0,,38.903017299999995,-77.03986805
502,PM1606450,PAR01330131,USCCB,2017,Data Under Review by DOEE,3211 4TH ST NE,UNITED STATES CONFERENCE OF CATHOLIC BISHOPS,5.0,WASHINGTON,DC,20017.0,1989,Office,Office,169000.0,194131.0,93,62.3,64.8,152.8,154.4,1111.3,5.7,4576.8,2378786.3,39707.106,38.92980185,-76.99947523
503,PM2962687,0162_0101,1133 Connecticut Ave,2017,In Compliance,1133 CONNECTICUT AVE NW,CONNECTICUT / DESALES LLC,2.0,WASHINGTON,DC,20036.0,1988,Office,Office,236563.0,190957.2,82,48.7,48.7,152.8,152.8,1030.9,5.4,2166.5,2723579.8,,38.90498472,-77.04024599
505,PM1852852,0625_0060,One Mass Ave,2017,In Compliance,1 MASSACHUSETTS AVE NW,NATIONAL GUARD ASSOCIATION OF THE UNITED STATES INC,6.0,WASHINGTON,DC,20001.0,1990,Office,Office,335283.0,195276.0,90,48.7,48.7,152.9,152.9,1055.0,5.4,2969.4,2787252.5,,38.89812581,-77.00956144
507,PM1424750,0626_0079,601 New Jersey Avenue,2017,Data Under Review by DOEE,601 NEW JERSEY AVE NW,601 NEW JERSEY AVE LLC,6.0,WASHINGTON,DC,20001.0,2002,Office,Office,278640.0,272238.9,77,48.7,48.7,153.1,153.1,1472.2,5.4,3334.1,3889493.6,,38.89786015,-77.01153543
508,PM4023596,0183_0847,American Federation  of State County && Municiple Employees,2017,In Compliance,1625 L ST NW,AFSCME BUILDING CORPORATION,2.0,WASHINGTON,DC,20036.0,1955,Office,Office,75033.0,75033.0,84,56.9,58.1,153.4,154.1,421.3,5.6,1010.0,985138.1,9109.947144,38.9040539,-77.03776733
509,PM1345607,0622_0089,CBRE 800 N CAPITOL,2017,In Compliance,800 NORTH CAPITOL ST NW,WEH CAPTIOL LLC,6.0,WASHINGTON,DC,20002.0,1991,Office,Office,417455.0,336820.0,88,48.9,48.9,153.6,153.4,2538.8,7.5,10844.3,4830496.4,,38.9005122,-77.00973054
511,PM6276323,1025_0811,1201 M Street,2017,Data Under Review by DOEE,1201 M ST SE,WASHINGTON GAS LIGHT CO,6.0,WASHINGTON,DC,20003.0,2000,Office,Office,207338.0,202273.0,95,56.9,58.1,153.9,153.2,1138.1,5.6,805.3,2669999.7,24015.10054,38.87613896,-76.98934998
513,PM1447242,0677_0145,10 G,2017,In Compliance,10 G ST NE,APA TEN G LLC,6.0,WASHINGTON,DC,20002.0,1997,Office,Office,274960.0,280169.0,95,49.1,49.1,154.1,154.1,1525.1,5.4,5275.2,4029487.2,,38.8990745,-77.00813670000001
518,PM3500320,0628_0901,20 F Street,2017,In Compliance,20 F ST NW,AMERICAN COLLEGE OF SURGEONS,6.0,WASHINGTON,DC,20001.0,2010,Office,Office,173460.0,178148.0,86,49.3,50.2,154.8,157.6,974.1,5.5,2407.6,2573688.9,,38.89705702,-77.00997618
519,PM2275407,1299_1006,Georgetown Plaza,2017,Data Under Review by DOEE,2233 WISCONSIN AV NW,FRANK H HENNEBURG,3.0,WASHINGTON,DC,20007.0,1964,Office,Office,219496.0,123068.0,85,57.0,58.6,154.9,155.4,696.0,5.7,2694.7,1640750.9,14111.496159999999,38.91994847,-77.07077822
522,PM1997814,0115_0084,1300 19th St NW,2017,In Compliance,1300 19TH ST NW,N19 ASSOCIATES LLC,2.0,WASHINGTON,DC,20036.0,1978,Office,Office,132359.0,133338.0,91,49.5,51.1,155.5,160.4,732.3,5.5,1438.4,1934795.5,,38.90746661,-77.04397876
525,PM2364583,0139_0074,1818 N St,2017,In Compliance,1818 N ST NW,LENKIN-N LP,2.0,WASHINGTON,DC,20036.0,1983,Office,Office,101988.0,108209.0,86,49.6,49.6,155.7,155.7,595.3,5.5,1274.8,1572897.3,,38.90712733,-77.04274445
527,PM1409873,0184_0849,Kita Washington Center,2017,In Compliance,1660 L ST NW,KITA WASHINGTON CENTER LLC,2.0,WASHINGTON,DC,20036.0,1968,Office,Office,207740.0,134672.0,93,62.9,65.8,155.8,157.5,784.0,5.8,3276.9,1695384.3,26799.773559999998,38.90347933,-77.03808004
528,PM2558899,0157_0866,Carnegie Endowment for International Peace,2017,In Compliance,1779 MASSACHUSETTS AV NW,CARNEGIE ENDOWMENT FOR INTL PEACE,2.0,WASHINGTON,DC,20036.0,1997,Office,Office,89323.0,89223.0,83,49.7,49.7,155.9,155.9,491.5,5.5,555.0,1298510.7,,38.90930125,-77.04100052
529,PM3048100,0537_0813,Patriots Plaza III - 2262 (EPL),2017,In Compliance,355 E ST SW,RIGGS BANK N.A. TRUSTEE,6.0,WASHINGTON,DC,20024.0,2003,Office,Office,572413.0,414177.0,91,49.7,50.3,156.0,157.9,2282.8,5.5,3857.9,6031322.8,,38.8836031,-77.01636372
533,PM1765382,0216_0800,1000 Vermont Avenue SPE LLC,2017,In Compliance,1000 VERMONT AV NW,1000 VERMONT AVENUE SPE LLC,2.0,WASHINGTON,DC,20005.0,1950,Office,Office,103407.0,89609.0,84,50.1,50.1,157.3,157.3,498.0,5.6,1175.5,1315760.7,,38.90296273,-77.0338974
535,PM3956966,1025_0812,Maritime Plaza-2,2017,Data Under Review by DOEE,1220 12TH ST SE,WASHINGTON GAS LIGHT CO,6.0,WASHINGTON,DC,20003.0,2002,Office,Office,145117.0,158913.0,86,57.7,58.9,157.3,156.5,912.4,5.7,1499.1,2154262.8,18268.12772,38.87525385,-76.98994638
538,PM3354050,0164_0003,1001 Connecticut Avenue,2017,In Compliance,1001 CONNECTICUT AV NW,1001 CONNECTICUT AVENUE LLC,2.0,WASHINGTON,DC,20036.0,1953,Office,Office,171080.0,142750.0,87,64.1,63.5,157.8,155.6,888.6,6.2,3392.1,1821383.7,9081.73834,38.90300964,-77.03906355
539,PM1389067,0254_0839,National Place,2017,In Compliance,1331  NW,NATIONAL PLACE LAND COMPANY LLC,2.0,WASHINGTON,DC,20004.0,1983,Office,Office,1544024.0,594315.0,91,50.4,50.8,158.2,159.7,3321.7,5.6,8821.8,8775960.3,,38.89715861,-77.03005325
540,PM1407276,0290_0044,1299 Pennsylvania Ave NW,2017,In Compliance,0501 13TH ST NW,WARNER INVESTMENTS LP,2.0,WASHINGTON,DC,20221.0,1991,Office,Office,641215.0,769685.0,86,50.4,50.4,158.2,158.2,4302.3,5.6,12788.0,11366819.2,,38.89649317,-77.02826612
542,PM1334631,0675_0841,One Union Center,2017,In Compliance,0810 1ST ST NE,DC FIRST STREET CORPORATION,6.0,WASHINGTON,DC,20002.0,1987,Office,Office,202576.0,232126.0,87,50.5,50.5,158.4,158.4,1299.1,5.6,6028.5,3432240.6,,38.90061293,-77.00702797
543,PM6276325,1025_0812,1220 12th Street SE,2017,Data Under Review by DOEE,1220 12TH ST SE,WASHINGTON GAS LIGHT CO,6.0,WASHINGTON,DC,20003.0,2002,Office,Office,145117.0,158053.0,94,58.3,59.5,158.4,157.9,914.4,5.8,1849.2,2154262.8,18646.00198,38.87525385,-76.98994638
546,PM1347061,0387_0868,950 L'Enfant Plaza,2017,In Compliance,0450 10TH ST SW,L'ENFANT COLONY LLC,6.0,WASHINGTON,DC,20024.0,1967,Office,Office,276288.0,314276.0,88,62.0,64.8,158.8,160.2,1849.7,5.9,4083.0,4131446.4,53832.799589999995,38.883385499999996,-77.02428922
547,PM1497374,0197_0079,"1156 Fifteenth, LLC",2017,In Compliance,1156 15TH ST NW,1156 FIFTEENTH LLC,2.0,WASHINGTON,DC,20005.0,1968,Office,Office,260598.0,177404.0,87,63.8,65.8,158.8,158.9,1122.3,6.3,6276.1,2299811.5,2929.681552,38.90539132,-77.03479492
548,PM1597342,0126_0058,1750 K Street NW,2017,In Compliance,1750 K ST NW,MAPS 1750 K LLC,2.0,WASHINGTON,DC,20006.0,1970,Office,Office,214618.0,180086.0,87,50.6,51.5,158.8,161.7,1010.2,5.6,396.1,2668893.9,,38.90214068,-77.04077861
550,PM3499503,0158_0078,1776 Mass Ave,2017,In Compliance,1776 MASSACHUSETTS AVE NW,1776 MASS AVE RE LLC,2.0,WASHINGTON,DC,20036.0,1970,Office,Office,115510.0,96447.0,90,50.7,51.6,159.2,162.0,542.5,5.6,1448.0,1433363.6,,38.90845559,-77.04115025
551,PM4051768,0571_0055,440 First St NW,2017,Data Under Review by DOEE,440 1ST ST NW,FP 440 1ST STREET LLC,6.0,WASHINGTON,DC,20001.0,1982,Office,Office,141930.0,138711.0,80,52.1,52.5,159.3,159.7,785.2,5.7,1671.1,2034309.6,2721.293482,38.89545473,-77.01247706
552,PM3983712,0127_0851,The Brawner Building,2017,In Compliance,0888 17TH ST NW,JOHN W BRAWNER TRUSTEE,2.0,WASHINGTON,DC,20006.0,1964,Office,Office,132548.0,117042.0,85,68.8,73.4,159.5,162.8,710.2,6.1,2175957.8,1433542.8,31555.396289999997,38.90109849,-77.03977287
554,PM6768,0126_0057,1776 K Street NW,2017,Data Under Review by DOEE,1776 K ST NW,1776 K STREET ASSOCIATES & RIDDELL PARTNERS,2.0,WASHINGTON,DC,20006.0,1969,Office,Office,256839.0,213067.0,83,63.4,65.8,160.3,161.4,1306.0,6.1,4633.8,2801509.4,39478.01343,38.90218881,-77.04123807
555,PM3509604,0157_0864,Brookings Institution,2017,In Compliance,1775 MASSACHUSETTS AV NW,BROOKINGS INSTITUTION,2.0,WASHINGTON,DC,20036.0,1959,Office,Office,173315.0,112278.0,81,69.8,74.0,160.5,162.6,687.2,6.1,2303.3,1373633.7,31492.734080000002,38.90913211,-77.04064606
556,PM1486998,0284_0042,1220 L Street,2017,In Compliance,1220 L ST NW,13TH AND L ASSOCIATES,2.0,WASHINGTON,DC,20005.0,1982,Office,Office,369164.0,321980.0,86,51.2,51.2,160.7,160.7,1827.5,5.7,3904.8,4828201.3,,38.90338921,-77.02914636
557,PM3965373,0217_0025,1012- 14th St Continental Building,2017,In Compliance,1012 14TH ST NW,CONTINENTIAL BUILDING LP,2.0,WASHINGTON,DC,20005.0,1954,Office,Office,99360.0,80488.0,85,65.0,67.2,160.9,161.6,484.3,6.0,1202.6,1046066.7,16628.7324,38.9032026,-77.03239727
558,PM1349227,0181_0873,Resources for the Future Inc./Resources and Conservation Center LLC,2017,In Compliance,1400 16TH ST NW,C M LAND LLC,2.0,WASHINGTON,DC,20036.0,1959,Office,Office,278656.0,273886.0,89,51.3,51.3,161.0,161.0,1557.9,5.7,3277.7,4115943.3,,38.90907529,-77.03707464
559,PM2482515,0711_0809,Two Constitution Square,2017,In Compliance,145 N ST NE,TWO CON LLC,6.0,WASHINGTON,DC,20002.0,2010,Office,Office,589000.0,623532.0,90,51.3,51.8,161.1,162.7,3548.6,5.7,7397.5,9375463.2,,38.90689827,-77.00457792
562,PM2308771,0107_0062,1825 K Street,2017,In Compliance,1825 K ST NW,THE MORRIS AND GWENDOLYN CAFRITZ FOUNDATION INC AND AMBASSADOR INC,2.0,WASHINGTON,DC,20006.0,1966,Office,Office,308836.0,254527.0,83,63.2,66.1,161.6,163.5,1525.2,6.0,4633.7,3401620.3,44760.48788,38.9028695,-77.04243628
564,PM1556347,0116_0074,1220 19th Street,2017,In Compliance,1220 19TH ST NW,WRIT LP,2.0,WASHINGTON,DC,20036.0,1975,Office,Office,110414.0,103501.0,87,55.4,56.0,161.7,161.0,600.8,5.8,2866.7,1502423.5,6058.71627,38.90664227,-77.04393917
565,PM3500466,0116_0077,1200 Nineteenth Street Benchmarking,2017,In Compliance,1200 19TH ST NW,1200 NINETEENTH STREET LLC,2.0,WASHINGTON,DC,20036.0,1964,Office,Office,321408.0,354926.0,88,57.1,57.1,161.8,161.8,2077.1,5.9,8194.9,5068827.9,29856.27324,38.9061145,-77.04387105
566,PM1583325,0267_0042,PORTALS III-1201 Maryland Avenue,2017,In Compliance,1201 MARYLAND AVE SW,PARCEL 47D LLC,6.0,WASHINGTON,DC,20024.0,2006,Office,Office,806904.0,519213.0,89,51.6,51.6,161.9,161.9,2969.4,5.7,6446.2,7845377.4,,38.88488136,-77.02866683
568,PM3641737,0088_0058,NAS Bldg,2017,In Compliance,2101 CONSTITUTION AVE NW,NATIONAL ACADEMY OF SCIENCES,2.0,WASHINGTON,DC,20418.0,1924,Office,Office,109303.0,173970.0,72,51.7,50.5,162.3,158.5,1350.8,7.8,3563.0,2635057.6,,38.89296694,-77.04764489
570,PM1525528,0222_0027,50011 - 1425 New York Ave NW,2017,In Compliance,1415 NEW YORK AV NW,RPT 1425 NEW YORK AVE LLC,2.0,WASHINGTON,DC,20005.0,1991,Office,Office,158124.0,284845.0,91,51.8,51.8,162.5,162.5,1635.3,5.7,6647.6,4320532.5,,38.89972991,-77.03257855
571,PM25506,0699_0028,80 M Street SE,2017,In Compliance,80 M ST SE,WELLS REIT II 80 M STREET LLC,6.0,WASHINGTON,DC,20003.0,2001,Office,Office,384666.0,319955.0,92,54.7,55.3,162.6,163.3,1860.8,5.8,4056.9,4719809.1,14000.89099,38.876731400000004,-77.00629566
572,PM1257638,0217_0050,1425K,2017,In Compliance,1425 K ST NW,BGW LP,2.0,WASHINGTON,DC,20005.0,1969,Office,Office,231489.0,239478.0,85,51.9,51.9,163.0,163.0,1378.7,5.8,3534.1,3642530.3,,38.90291748,-77.03307377
573,PM1268752,0140_0092,1850 M St.,2017,In Compliance,1850 M ST NW,MANUFACTURERS LIFE INSURANCE,2.0,WASHINGTON,DC,20036.0,1985,Office,Office,302448.0,254980.0,90,51.9,53.0,163.0,166.5,1468.7,5.8,4380.8,3880229.4,,38.90536949,-77.04295035
574,PM1273027,0252_0060,The Colorado Building,2017,In Compliance,1341 G ST NW,COLDC 54 OWNER LLC,2.0,WASHINGTON,DC,20005.0,1903,Office,Office,187804.0,149720.0,77,52.1,52.1,163.5,163.5,864.6,5.8,2468.6,2284385.9,,38.89861501,-77.03140919
575,PM2722082,0674_0853,Sentinel Square I,2017,In Compliance,90 K ST NE,SENTINEL SQUARE 1 LLC,6.0,WASHINGTON,DC,20002.0,2009,Office,Office,450000.0,435400.0,86,52.1,52.1,163.5,163.5,2514.5,5.8,5181.8,6643452.3,,38.90288459,-77.00664418
576,PM1326900,0376_0828,0975 F Street NW (Carroll Square),2017,In Compliance,977 - 979 F ST NW,ST PATRICK'S CHURCH,2.0,WASHINGTON,DC,20004.0,2006,Office,Office,179929.0,187954.0,83,52.1,52.6,163.6,165.2,1086.6,5.8,4120.1,2870816.2,,38.89764136,-77.0250236
578,PM3529495,0429_0838,Portrait Building,2017,In Compliance,701 8TH ST NW,REGENCY PORTRAIT LLC,2.0,WASHINGTON,DC,20001.0,2005,Office,Office,111026.0,154799.0,81,52.1,52.1,163.7,163.7,895.0,5.8,2452.3,2364648.6,,38.89900852,-77.0226566
579,PM1257643,0160_0035,OFC Building,2017,In Compliance,1730 RHODE ISLAND AV NW,MAIZELS FAMILY LIMITED LIABILITY LIMITED PARTNERSHIP,2.0,WASHINGTON,DC,20036.0,1966,Office,Office,244818.0,182134.0,88,67.4,70.2,163.8,165.3,1121.7,6.2,4266.6,2376574.7,41411.573039999996,38.90594675,-77.03933797
581,PM3688013,0250_0857,1350 I Street NW,2017,In Compliance,1350 I ST NW,1350 EYE CO-TENANT LLC,2.0,WASHINGTON,DC,20005.0,1989,Office,Office,156951.0,399907.0,83,52.3,53.8,164.3,168.8,2321.3,5.8,5039.9,6132992.9,,38.9010354,-77.03129995
584,PM2706378,0287_0813,1212 New York Avenue NW,2017,In Compliance,1212 NEW YORK AV NW,JAGUAR PROPERTIES LLC,2.0,WASHINGTON,DC,20005.0,1987,Office,Office,155790.0,109335.0,83,52.5,54.0,164.8,169.6,636.5,5.8,679.3,1681741.4,,38.90014467,-77.02877488
585,PM3988101,0195_0848,Carnegie Institution of Washington,2017,In Compliance,1530 P ST NW,CARNEGIE INSTITUTION OF WASHINGTON,2.0,WASHINGTON,DC,20005.0,1909,Office,Office,51761.0,51761.0,55,65.0,67.7,164.9,166.1,317.1,6.1,218.3,701261.2,9726.123904,38.90942147,-77.0359486
588,PM3028867,0537_0811,Patriots Plaza I - 2061 (EPL),2017,In Compliance,410 4TH ST SW,RIGGS BANK NA TRUSTEE,6.0,WASHINGTON,DC,20472.0,2005,Office,Office,294130.0,294130.0,77,52.6,52.6,165.3,165.3,1717.9,5.8,3046.6,4538637.6,,38.88362046,-77.01715541
589,PM1470509,0140_0090,1111 19th St NW,2017,In Compliance,1111 19TH ST NW,COLUMBIA DC 1111 19TH ST OFFICE PROPERTIES LLC,2.0,WASHINGTON,DC,20036.0,1979,Office,Office,270061.0,290398.6,91,52.7,53.4,165.5,167.8,1697.8,5.8,2314.5,4485558.0,,38.90441667,-77.04296027
594,PM1380124,0316_0035,1101 K Street,2017,In Compliance,1101 K ST NW,RG-1101 K LLC,2.0,WASHINGTON,DC,20005.0,2007,Office,Office,453141.0,313852.0,85,52.8,52.8,165.9,165.9,1839.0,5.9,5206.0,4858632.2,,38.90286804,-77.02741697
595,PM3470446,0465_0096,Constitution Center,2017,In Compliance,0400 7TH ST SW,CC OWNER LLC,6.0,WASHINGTON,DC,20024.0,1970,Office,Office,1336013.0,1582262.0,89,59.8,60.7,165.9,166.1,9539.4,6.0,21122.3,22870183.5,166268.3021,38.88468934,-77.02017537
596,PM2256994,1666_0804,5101 Wisconsin,2017,In Compliance,5101 WISCONSIN AV NW,GARRISON ASSOCIATES LLC,3.0,WASHINGTON,DC,20016.0,1976,Office,Office,102638.0,61855.0,80,52.9,52.9,166.0,166.0,362.8,5.9,290.5,958554.1,,38.95627793,-77.08299919
597,PM1495933,0376_0823,"901 F Street, NW",2017,In Compliance,0901 F ST NW,901 F LLC,2.0,WASHINGTON,DC,20004.0,2001,Office,Office,172152.0,118044.0,74,52.9,52.9,166.2,166.2,693.0,5.9,5353.4,1830825.8,,38.89756764,-77.02431223
599,PM1356732,0247_0092,1101 14th street,2017,In Compliance,1101 14TH ST NW,AZURE 14TH STREET CORPORATION,2.0,WASHINGTON,DC,20005.0,1981,Office,Office,155374.0,119963.0,83,53.1,53.2,166.3,166.4,705.3,5.9,5639.3,1859440.5,290.423154,38.90400249,-77.03159119
600,PM1257635,0316_0032,1100L,2017,In Compliance,1100 L ST NW,12TH & L STREET LTD PARTNERSHIP,2.0,WASHINGTON,DC,20005.0,1969,Office,Office,474396.0,345115.6,86,59.5,62.4,166.6,171.4,2085.1,6.0,4657.1,5039809.1,33418.87429,38.90355769,-77.02754935
601,PM3267016,0569_0080,500 First Street NW,2017,In Compliance,500 1ST ST NW,FP 500 FIRST STREET LLC,6.0,WASHINGTON,DC,20001.0,1966,Office,Office,160600.0,134435.0,90,69.9,75.3,166.6,173.1,846.1,6.3,1443.9,1758525.1,33698.93698,38.89639159,-77.01258109
602,PM3981395,1467_0882,"4910 Mass. Ave., NW",2017,In Compliance,4910 MASSACHUSETTS AVE NW,WC AND AN MILLER DEVELOPMENT COMPANY,3.0,WASHINGTON,DC,20016.0,1986,Office,Office,84263.0,84264.0,72,62.3,63.6,166.8,165.9,515.2,6.1,1760.8,1197729.0,11641.95976,38.94608065,-77.09779633
603,PM1180513,0287_0038,1200 New York Avenue NW (AAAS),2017,In Compliance,1200 NEW YORK AVE NW,AMERICAN ASSOCIATION FOR THE ADVANCEMENT OF SCIENCE,2.0,WASHINGTON,DC,20005.0,1995,Office,Office,263000.0,231089.0,83,61.1,63.2,167.1,168.4,1407.8,6.1,2881.0,3334407.9,27432.98553,38.90022132,-77.02844738
609,PM1257640,0161_0037,Bender Building,2017,In Compliance,1120 CONNECTICUT AV NW,JACK I BENDER & SONS,2.0,WASHINGTON,DC,20036.0,1959,Office,Office,403277.0,369441.4,83,58.9,61.0,167.7,170.7,2295.6,6.2,6019.1,5499791.5,4212.663508,38.90416531,-77.04098393
610,PM2058465,0672_0856,125310 - Capitol Plaza I,2017,In Compliance,1200 1ST ST NE,VEF-VN CAPITOL PLAZA I LLC,6.0,WASHINGTON,DC,20002.0,2006,Office,Office,299722.0,293884.0,91,53.8,55.7,167.7,172.5,1743.5,5.9,6940.3,4532346.4,1533.201635,38.906095,-77.00635797
611,PM3632062,0743N_0077,100 M Street SE,2017,In Compliance,100 M ST SE,SQUARE 743 INC,6.0,WASHINGTON,DC,20003.0,2008,Office,Office,270134.0,256777.0,90,59.2,58.7,167.8,166.1,1558.1,6.1,6613.2,3804135.5,22262.84478,38.87675991,-77.00534259
612,PM1419646,0162_0100,Demonet Building,2017,In Compliance,1155 CONNECTICUT AV,1155 Connecticut Ave Inc,2.0,WASHINGTON,DC,20036.0,1984,Office,Office,90346.0,107967.0,75,53.5,54.7,167.9,171.7,640.4,5.9,2250.9,1692065.3,,38.90545796,-77.04039486
613,PM1273462,1171_2893,Harbourside,2017,In Compliance,2900 K ST NW,THE RESIDENCES @ HARBOURSIDE,2.0,WASHINGTON,DC,20007.0,2009,Office,Office,99485.0,160514.0,79,53.7,53.7,168.0,168.0,953.2,5.9,4002.5,2511185.0,520.791208,38.90199219,-77.05863574
614,PM1423516,2535_0831,1825 Connecticut Avenue,2017,In Compliance,1825 CONNECTICUT AV NW,UNIVERSAL BUILDING INC,1.0,WASHINGTON,DC,20009.0,1959,Office,Office,421810.0,319977.0,86,70.7,75.2,168.0,172.0,2031.5,6.3,7989.6,4209567.4,82502.19144,38.91549443,-77.04572322
615,PM1330640,0185_0828,1625 Eye Street,2017,In Compliance,1625 I ST NW,BFP 1625 EYE CO LLC,2.0,WASHINGTON,DC,20006.0,2002,Office,Office,624620.0,419302.0,85,53.6,53.8,168.2,169.0,2491.8,5.9,10728.4,6583477.3,,38.90172313,-77.03760436
616,PM2511662,0455_0839,0700 Sixth Street NW (USAA),2017,Data Under Review by DOEE,700 6TH ST NW,BERGMANNS INC,2.0,WASHINGTON,DC,20001.0,2009,Office,Office,299216.0,328412.0,69,61.9,62.0,168.4,168.5,2015.6,6.1,5223.9,5685930.5,9436.89193,38.89917195,-77.02017327
619,PM1413138,0161_0038,Connecticut Building,2017,In Compliance,1150 CONNECTICUT AV NW,NORTHWESTERN DEVELOPMENT COMPANY B,2.0,WASHINGTON,DC,20036.0,1975,Office,Office,246682.0,204011.0,84,65.6,67.3,169.2,170.4,1340.0,6.6,3234.6,2884658.5,7039.369343,38.90532162,-77.04131342
620,PM3990208,0214_0850,1100 Vermont Avenue,2017,In Compliance,1100 VERMONT AV NW,7 K LLC,2.0,WASHINGTON,DC,20005.0,1964,Office,Office,96481.0,67935.0,69,67.6,67.4,169.4,167.3,428.9,6.3,1171.5,937930.8,13911.06706,38.90398163,-77.03338691
621,PM3762218,0223_0026,CNBB,2017,In Compliance,1401 G ST NW,CNBB OWNER LLC,2.0,WASHINGTON,DC,20005.0,1917,Office,Office,463869.0,259162.0,82,54.0,54.0,169.7,169.7,1553.6,6.0,3448.9,4104637.0,,38.89890128,-77.032218
623,PM3081163,0320_0028,"Jemal's Square 320, LLC",2017,In Compliance,1155 F ST NW,JEMAL'S SQUARE 320 LLC,2.0,WASHINGTON,DC,20004.0,2009,Office,Office,380222.0,250692.0,88,54.3,54.3,170.4,170.4,1509.0,6.0,6342.1,3986880.9,,38.89783365,-77.02731145
624,PM1675389,0197_0860,Columbia Center,2017,In Compliance,1152  15TH ST NW,1152 15TH STREET GROUND LLC,2.0,WASHINGTON,DC,20005.0,2007,Office,Office,425568.0,425566.0,88,54.3,55.2,170.6,173.2,2565.1,6.0,5638.3,6777092.2,,38.90492482,-77.03488243
626,PM1423556,2535_0830,1875 Connecticut Ave NW,2017,In Compliance,1875 CONNECTICUT AV NW,UNIVERSAL BLDG NORTH INC,1.0,WASHINGTON,DC,20009.0,1962,Office,Office,519484.0,404202.0,84,71.3,76.9,170.8,177.6,2604.3,6.4,5158.2,5438831.6,102736.031,38.91568184,-77.04477725
627,PM2344141,0371_1349,901 K Street,2017,In Compliance,901 K ST NW,901 K ST CONDO,2.0,WASHINGTON,DC,20001.0,2009,Office,Office,201715.0,274148.0,85,54.4,55.0,170.8,172.8,1654.7,6.0,2815.4,4371752.5,,38.90309449,-77.02526185
628,PM1800460,0078_0847,2020 K Street,2017,In Compliance,2020 K ST NW,2020 K CORPORATION,2.0,WASHINGTON,DC,20006.0,1975,Office,Office,504408.0,419988.0,79,54.4,54.4,170.9,170.9,2536.5,6.0,6422.2,6701410.9,,38.90214936,-77.04602883
629,PM3197385,0221_0037,740 15th Street NW,2017,In Compliance,750 15TH ST NW,NCRC 740 LLC,2.0,WASHINGTON,DC,20005.0,1907,Office,Office,207654.0,207654.0,69,54.4,56.0,170.9,175.7,1253.4,6.0,3331.7,3311492.3,,38.90002663,-77.03392205
630,PM1409004,0626_0078,20 Massachusetts Avenue,2017,In Compliance,20 MASSACHUSETTS AVE NW,GOVERNMENT PROPERTIES INCOME TRUST LLC,6.0,WASHINGTON,DC,20529.0,1974,Office,Office,437693.0,343324.0,87,58.7,59.7,171.1,171.6,2110.2,6.1,6200.6,5268156.3,21873.30209,38.89777321,-77.01066806
631,PM3636985,0755_0003,The Heritage Foundation 208 Building,2017,In Compliance,208 MASSACHUSETTS AVE NE,THE HERITAGE FOUNDATION,6.0,WASHINGTON,DC,20002.0,1960,Office,Office,63291.0,67749.0,68,70.7,74.0,171.1,174.6,436.0,6.4,1905.8,920265.9,16512.7896,38.89533555,-77.00295008
632,PM3502512,0073_0080,Gelman Building,2017,In Compliance,2120 L ST NW,GELMAN BUILDING LTD PARTNERSHIP,2.0,WASHINGTON,DC,20037.0,1970,Office,Office,235326.0,235326.0,80,54.6,55.4,171.4,174.0,1425.1,6.1,2788.5,3765270.8,,38.90342611,-77.04760691
634,PM1423296,0251_0012,1399 New York Ave NW,2017,Data Under Review by DOEE,1399 NEW YORK AVE NW,VNO 1399 NEW YORK AVENUE TIC OWNER LLC,2.0,WASHINGTON,DC,20005.0,2001,Office,Office,175784.0,141677.0,43,61.4,61.4,171.8,171.8,880.6,6.2,2592.4,2547575.6,,38.89990243,-77.03159491
635,PM2362274,0164_0036,1050 17th,2017,In Compliance,1050 17TH ST NW,L-17 PARTNERSHIP,2.0,WASHINGTON,DC,20036.0,1974,Office,Office,155901.0,143739.0,81,54.8,56.6,172.0,177.9,873.6,6.1,2942.9,2308170.7,,38.90359914,-77.0387495
636,PM1412761,0218_0080,McPherson Building,2017,In Compliance,0901 15TH ST NW,MULLEN MANAGEMENT COMPANY INC,2.0,WASHINGTON,DC,20005.0,1988,Office,Office,355204.0,319388.0,88,54.8,54.2,172.2,170.2,1942.6,6.1,6646.5,5132411.5,,38.90163044,-77.032794
637,PM2681003,0320_0815,1100 G Street,2017,In Compliance,1100 G ST NW,"""11TH & G ST INVESTORS",2.0,WASHINGTON,DC,20005.0,1968,Office,Office,144356.0,109959.0,83,66.1,67.9,172.2,170.9,698.6,6.4,2561.8,1585946.3,18515.57014,38.89814841,-77.02730068
638,PM1348840,0677_0146,750 First Street,2017,In Compliance,750 1ST ST NE,APA 750 LLC,6.0,WASHINGTON,DC,20002.0,1991,Office,Office,394400.0,391971.0,87,54.9,54.9,172.3,172.3,2385.4,6.1,5581.9,6302327.2,,38.8998489,-77.00748706
642,PM3970121,0223_0025,0223-0025_NYAVE,2017,In Compliance,1435 G ST NW,1440 NEW YORK AVENUE CORPORATION,2.0,WASHINGTON,DC,20005.0,1934,Office,Office,228254.0,226742.0,80,55.2,55.7,173.3,175.0,1388.5,6.1,3763.8,3668484.6,,38.89874224,-77.03277222
643,PM16591,0106_0049,International Square,2017,In Compliance,1835 I ST NW,CARR CRHP PROPERTIES LLC,2.0,WASHINGTON,DC,20006.0,1980,Office,Office,1185122.0,1343643.0,80,55.2,55.9,173.4,175.6,8230.5,6.1,24606.6,21745261.7,,38.90227289,-77.04194689
644,PM1397627,0250_0841,The Associations,2017,In Compliance,1307 NEW YORK AV,AMERICAN ASSOC OF STATE COLLEGES AND UNIVERSITIES,2.0,WASHINGTON,DC,20005.0,1923,Office,Office,144144.0,131330.0,79,55.3,55.3,173.7,173.7,805.7,6.1,4359.8,2128728.8,,38.90054206,-77.03041573
645,PM4005190,0214_0108,"1110 Vermont Avenue, NW",2017,In Compliance,1110 VERMONT AVE NW,EPIC VERMONT LLC,2.0,WASHINGTON,DC,20005.0,1980,Office,Office,383395.0,318497.0,85,55.4,55.4,173.8,173.8,1955.7,6.1,7839.6,5167095.0,,38.90431697,-77.03322544
647,PM1404504,0712_0111,One NoMa Station,2017,In Compliance,131 M ST NE,UNION STATION ASSOCIATES LTD,6.0,WASHINGTON,DC,20002.0,1938,Office,Office,442412.0,436178.0,85,56.1,56.1,174.3,174.0,2691.6,6.2,5351.2,7059025.5,3723.01114,38.90517082,-77.00480135
649,PM5011813,0160_0037,1200 17th Street,2017,Data Under Review by DOEE,1200 17TH ST NW,1200 17TH STREET INVESTORS LLC,2.0,WASHINGTON,DC,20036.0,2014,Office,Office,175383.0,171255.0,86,55.5,55.5,174.4,174.4,1055.0,6.2,2626.9,2787354.8,,38.90598682,-77.03886951
650,PM1341848,0489_0021,Liberty Square,2017,In Compliance,0450 5TH ST NW,JUDICIARY PLAZA LLC,2.0,WASHINGTON,DC,20001.0,1982,Office,Office,437277.0,543682.0,85,55.6,55.6,174.5,174.5,3351.5,6.2,6373.3,8854777.4,,38.89561559,-77.01930057
651,PM1984865,0117_0075,*L50024 - 1129 20th Street NW,2017,In Compliance,1129 20TH ST NW,REPUBLIC 20TH STREET LLC,2.0,WASHINGTON,DC,20036.0,1969,Office,Office,139224.0,182220.0,88,55.8,56.4,174.5,176.4,1124.5,6.2,2841.1,2963148.3,564.275844,38.90453284,-77.04451259
652,PM3267017,0159_0084,1211 Connecticut,2017,In Compliance,1211 CONNECTICUT AV NW,FP 1211 CONNECTICUT AVENUE LLC,2.0,WASHINGTON,DC,20036.0,1968,Office,Office,183950.0,159083.0,81,72.2,73.5,174.5,173.8,1108.1,7.0,3337.8,2217004.9,10392.24056,38.90634525,-77.04092128
654,PM3500589,1579_0010,4400 Jenifer St,2017,In Compliance,4400 JENIFER ST NW,JENIFER STREET LIMITED PARTNERSHIP,3.0,WASHINGTON,DC,20015.0,1972,Office,Office,136710.0,82525.0,79,71.4,74.8,174.7,176.7,540.6,6.6,1607.2,1153468.8,19585.48161,38.95863203,-77.08652334
655,PM4793706,1187_0812,Papermill - SV,2017,In Compliance,3251 K ST NW,MILL PARTNERS PAPERMILL L P,2.0,WASHINGTON,DC,20007.0,1940,Office,Office,88893.0,100255.0,59,55.6,57.9,174.7,181.8,618.8,6.2,2569.1,1634969.5,,38.90342297,-77.06481598
656,PM1423434,0162_0822,1725 DeSales St NW,2017,In Compliance,1725 DE SALES ST NW,DESALES VENTURE LLC,2.0,WASHINGTON,DC,20036.0,1962,Office,Office,121709.0,81625.0,72,82.3,89.3,174.8,180.9,556.3,6.8,2135.3,1011464.4,32665.12935,38.90498633,-77.03974057
657,PM1335301,0086_0844,1900 K Street,2017,In Compliance,1900 K ST NW,TEACHERS INSURANCE AND ANNUITY ASSOCIATION OF AMERICA,2.0,WASHINGTON,DC,20006.0,1995,Office,Office,440000.0,379324.0,85,55.9,56.0,175.5,176.0,2352.5,6.2,4766.3,6215361.9,,38.90207874,-77.04391273
658,PM3229646,0183_0879,1615 L Street,2017,In Compliance,1615 L ST NW,CP 1615 L STREET LLC,2.0,WASHINGTON,DC,20036.0,1984,Office,Office,659196.0,414675.0,80,56.0,57.5,175.8,180.5,2575.5,6.2,5044.4,6804661.2,,38.90427678,-77.03745341
661,PM3283449,0346_0805,"Jemal's Cayre Woodies, LLC",2017,In Compliance,1025 F ST NW,JEMAL'S CAYRE WOODIES LLC,2.0,WASHINGTON,DC,20004.0,1902,Office,Office,475872.0,517754.0,67,62.8,62.8,175.9,175.9,3296.0,6.4,10775.3,9535045.0,,38.89818886,-77.02649509
662,PM1070151,0285_0049,1200 K Street,2017,In Compliance,1200 K ST NW,1200 K ST I CO LLC,2.0,WASHINGTON,DC,20005.0,1991,Office,Office,567863.0,429455.0,95,56.6,56.6,176.0,176.0,2675.1,6.2,5034.1,7019735.6,3410.422442,38.90213258,-77.02864978
663,PM3019499,0140_0094,1150 18th Street,2017,In Compliance,1150 18TH ST NW,DMARC 2007 CD5 1150 OFFICE LLC,2.0,WASHINGTON,DC,20036.0,1990,Office,Office,170247.0,196796.0,76,56.1,56.2,176.3,176.4,1225.5,6.2,2871.7,3237722.1,,38.90450379,-77.04218812
665,PM1056237,0138_0804,1300 Connecticut Avenue NW,2017,In Compliance,1300 CONNECTICUT AV NW,TRT 1300 CONNECTICUT AVE OWNER LLC,2.0,WASHINGTON,DC,20036.0,1956,Office,Office,147560.0,134864.0,77,56.2,56.2,176.5,176.5,841.0,6.2,3274.2,2221944.6,,38.90751862,-77.04267356
667,PM3283514,0563_0016,"Jemal's Darth Vader, LLC",2017,In Compliance,111 MASSACHUSETTS AVE NW,JEMAL'S DARTH VADER LLC,6.0,WASHINGTON,DC,20001.0,1983,Office,Office,382448.0,310129.0,78,56.3,56.3,176.9,176.9,1937.9,6.2,4080.1,5120044.0,,38.89967769,-77.01317606
668,PM6277195,0408_0837,701 Pennsylvania Avenue NW,2017,Data Under Review by DOEE,0701 PENNSYLVANIA AV NW,COLUMBIA REIT - MARKET SQUARE EAST AND WEST LLC,2.0,WASHINGTON,DC,20004.0,1991,Office,Office,566130.0,532128.0,74,56.4,56.4,177.0,177.0,3328.0,6.3,10302.0,8792610.7,,38.89466426,-77.02213004
669,PM1188996,0285_0047,1225 Eye Street,2017,In Compliance,1225 I ST NW,1225 EYE STREET NW ASSOCIATES LLC,2.0,WASHINGTON,DC,20005.0,1985,Office,Office,310153.0,248131.0,84,56.4,56.0,177.3,176.0,1553.8,6.3,4536.4,4105203.4,,38.90165744,-77.02916215
671,PM3999702,0693_0086,Democratic Properties Corporation,2017,In Compliance,430 SOUTH CAPITOL ST SE,DEMOCRATIC PROPERTIES CORPORATION,6.0,WASHINGTON,DC,20003.0,1984,Office,Office,77776.0,94163.0,60,63.4,63.4,177.4,177.4,604.4,6.4,2688.2,1748571.9,,38.88407543,-77.00859716
672,PM1327025,0024_0112,WWF  Square 0024 Lots 112 and 880,2017,In Compliance,1250 24TH ST NW,WORLD WILDLIFE FUND INC,2.0,WASHINGTON,DC,20037.0,1986,Office,Office,311428.0,245627.1,89,56.5,57.7,177.5,181.2,1540.6,6.3,3424.9,4070289.1,,38.90650228,-77.05185679
673,PM1435721,0250_0047,1301 New York Ave,2017,In Compliance,1301 NEW YORK AVE NW,1301 NEW YORK OWNER LLC,2.0,WASHINGTON,DC,20530.0,1982,Office,Office,257822.0,207599.0,88,56.6,56.6,177.8,177.8,1304.3,6.3,5955.6,3446118.1,,38.90058064,-77.029996
674,PM3989870,0288_0061,Jemal's C&P LLC,2017,In Compliance,700 12TH ST NW,C & P TELEPHONE COMPANY,2.0,WASHINGTON,DC,20005.0,1902,Office,Office,54705.0,54700.0,66,56.6,56.6,177.9,177.9,343.7,6.3,1036.4,908046.9,,38.89914824,-77.0284586
675,PM3268854,0166_0042,1750 H Street NW,2017,In Compliance,1750 H ST NW,FP CPT 1750 H STREET LLC,2.0,WASHINGTON,DC,20006.0,2002,Office,Office,166522.0,122193.0,77,57.5,57.6,178.4,178.6,772.4,6.3,1751.2,2022962.0,1255.252357,38.90000507,-77.04090649999999
676,PM3788558,0405_0024,Edison Place DDOE,2017,Data Under Review by DOEE,0701 9TH ST NW,BFP 701 9TH CO LLC,2.0,WASHINGTON,DC,20001.0,2001,Office,Office,383813.0,398837.0,85,56.8,58.1,178.4,182.4,2514.3,6.3,7906733.1,6642770.3,,38.89933221,-77.02320242
677,PM3631056,0161_0032,1140 Connecticut Avenue,2017,In Compliance,1134 - 1140 CONNECTICUT AV NW,WRIT 1140 CT LLC,2.0,WASHINGTON,DC,20036.0,1967,Office,Office,245932.0,195835.0,84,63.8,65.4,178.6,179.6,1268.1,6.5,4080.2,3063491.9,20441.30692,38.9050623,-77.04114411
678,PM1159361,0107_0075,MAPS 1801 K Street LLC,2017,In Compliance,1801 K ST NW,BLENHEIM DC I LLC,2.0,WASHINGTON,DC,20036.0,1970,Office,Office,818524.0,620265.0,85,56.9,56.9,178.7,178.7,3915.8,6.3,11183.0,10345632.0,,38.90359497,-77.04201003
680,PM3353520,0770_0809,USDOT Building,2017,In Compliance,1200 NEW JERSEY AV,JBG/FEDERAL CENTER LLC,6.0,WASHINGTON,DC,20590.0,2006,Office,Office,1918668.0,1583819.0,93,64.1,64.8,178.9,178.3,10282.4,6.5,33282.0,24790895.0,169273.0063,38.87589788,-77.00109859
682,PM1420135,0538_0874,GSA: 300 E Street SW,2017,In Compliance,0300 E ST SW,WELLS REIT/INDEPENDENCE SQUARE LLC,6.0,WASHINGTON,DC,20546.0,1991,Office,Office,899096.0,659773.0,90,58.9,59.6,179.4,180.5,4210.6,6.4,7682.8,10879513.8,17460.03643,38.88293684,-77.01635376
683,PM3472542,0574_0024,122 C Street,2017,In Compliance,122 C ST NW,ZG 122 C STREET LLC,6.0,WASHINGTON,DC,20001.0,1968,Office,Office,128076.0,117932.0,80,75.5,79.7,179.8,181.8,800.7,6.8,1749.5,1662904.2,32246.15674,38.89334005,-77.01302389
684,PM2222721,0459_0820,601 Pennsylvania Avenue,2017,In Compliance,0601 PENNSYLVANIA AV NW,SAUL SUBSIDIARY II LTD,2.0,WASHINGTON,DC,20004.0,1984,Office,Office,50188.0,244003.0,83,57.3,58.1,179.9,182.4,1550.6,6.4,6582.8,4096717.9,,38.8933069,-77.02050371
685,PM3055681,0220_0044,The Southern Building,2017,In Compliance,1425 H ST NW,SOUTHERN BUILDING ASSOCIATES LLP,2.0,WASHINGTON,DC,20005.0,1911,Office,Office,226531.0,181949.0,76,64.3,65.5,180.3,179.3,1189.0,6.5,6883.4,2875650.6,18943.1758,38.90073025,-77.03298282
687,PM1267785,0166_0862,750 17th St.,2017,In Compliance,750 17TH ST NW,MANUFACTURERS LIFE INSURANCE COMPANY,2.0,WASHINGTON,DC,20006.0,1989,Office,Office,187368.0,136452.0,81,57.5,58.7,180.7,184.2,871.0,6.4,2316.3,2301111.9,,38.89978091,-77.03982701
688,PM1423599,0078_0848,2099 Penn Ave,2017,In Compliance,2099 PENNSYLVANIA AV NW,2099 OWNER LP,2.0,WASHINGTON,DC,20006.0,2000,Office,Office,231809.0,231164.0,74,57.5,57.5,180.7,180.7,1475.6,6.4,3287.7,3898534.3,,38.90164902,-77.04629552
690,PM1242152,0322_0021,Evening Star Building,2017,In Compliance,1101 PENNSYLVANIA AVE NW,TC 1101 PENNSYLVANIA AVENUE OWNER LLC,2.0,WASHINGTON,DC,20004.0,1898,Office,Office,336271.0,244160.0,76,57.6,57.6,181.0,181.0,1561.3,6.4,5474.9,4125069.0,,38.89516346,-77.0274071
691,PM2256771,0181_0161,1625 Massachusetts Avenue NW,2017,In Compliance,1625 MASSACHUSETTS AVE NW,1625 MASSACHUSETTS AVENUE LLC,2.0,WASHINGTON,DC,20036.0,1972,Office,Office,266189.0,129780.0,84,57.8,59.4,181.5,186.6,832.0,6.4,2746.2,2198159.8,,38.90814298,-77.03800805
692,PM1373989,0073_0084,2121 K Street,2017,In Compliance,2115-2121  K ST NW,2121 K LLC,2.0,WASHINGTON,DC,20037.0,1981,Office,Office,235248.0,193537.0,80,57.9,57.9,181.8,181.8,1243.2,6.4,3747.1,3284444.5,,38.90287198,-77.0472405
693,PM3513078,3064_0044,Wonder Plaza,2017,In Compliance,2301 GEORGIA AVE NW,HOWARD UNIVERSITY  (LAND ONLY),1.0,WASHINGTON,DC,20001.0,1906,Office,Office,119700.0,110000.0,52,59.6,60.0,182.2,182.6,712.1,6.5,1506.6,1844751.1,2615.392714,38.92061614,-77.02162297
694,PM3919889,0223_0024,Bond,2017,In Compliance,1400 NEW YORK AV NW,BOND WASHINGTON LLC,2.0,WASHINGTON,DC,20005.0,1986,Office,Office,211501.0,173576.0,81,58.1,58.1,182.3,182.3,1117.8,6.4,3291.3,2953343.8,,38.89901997,-77.03223135
695,PM17736,0250_0051,Franklin Square,2017,In Compliance,1300 I ST NW,TIAA FRANKLIN SQUARE LLC,2.0,WASHINGTON,DC,20005.0,1989,Office,Office,606768.0,517464.0,85,59.5,59.5,182.4,182.4,3352.2,6.5,7987.1,8708173.9,10578.148659999999,38.90100088,-77.03034999
696,PM3996137,0200_0026,AFL-CIO,2017,In Compliance,815 16TH ST NW,AFL & CIO TRUSTEES,2.0,WASHINGTON,DC,20006.0,1956,Office,Office,179490.0,212338.8,80,76.0,76.0,182.6,181.1,1461.5,6.9,2270.1,3060786.6,57039.9427,38.90089025,-77.03608229
698,PM1583318,0299_0832,Portals I - 1250/1280 Maryland Ave,2017,In Compliance,1250 MARYLAND AV SW,PARCEL 49B LIMITED PARTNERSHIP,6.0,WASHINGTON,DC,20024.0,1991,Office,Office,800000.0,583876.0,85,58.2,58.2,182.7,182.7,3767.9,6.5,9105.8,9954871.5,,38.88409053,-77.02899095
700,PM2411223,0196_0834,1501 M Street,2017,In Compliance,1501 M ST NW,I&G DC REIT INC,2.0,WASHINGTON,DC,20005.0,1991,Office,Office,269837.0,195421.0,75,58.4,59.1,183.3,185.5,1265.3,6.5,6743.9,3343064.0,,38.90601233,-77.03483074
702,PM4508405,0316_0035,1101 K Street - DC Reporting,2017,In Compliance,1101 K ST NW,RG-1101 K LLC,2.0,WASHINGTON,DC,20005.0,2007,Office,Office,453141.0,322448.0,85,58.9,58.9,183.4,183.4,2093.4,6.5,5206.0,5497297.4,2381.955243,38.90286804,-77.02741697
703,PM3473953,0085_0061,1020 19th Street,2017,In Compliance,1020 19TH ST NW,"""ZG 1020 19TH STREET",2.0,WASHINGTON,DC,20036.0,1982,Office,Office,158688.0,115080.0,79,58.4,58.4,183.5,183.5,745.9,6.5,3115.9,1970670.7,,38.9033508,-77.0436985
705,PM4018293,0217_0805,1029 Vermont Ave,2017,In Compliance,1029 VERMONT AV NW,VERMONT ASSOCIATES,2.0,WASHINGTON,DC,20005.0,1921,Office,Office,51024.0,51024.0,54,58.5,59.5,183.8,187.0,331.3,6.5,1746.2,875304.2,,38.90355506,-77.03284659
706,PM2930341,0114_0816,National Center for Higher Education,2017,In Compliance,0001 DUPONT CIR NW,AMERICAN COUNCIL ON EDUCATION,2.0,WASHINGTON,DC,20036.0,1969,Office,Office,302468.0,232957.0,85,73.1,76.0,183.9,187.5,1595.0,6.8,4758.7,3499001.9,50953.83023,38.90923459,-77.04445362
708,PM1865876,0169_0071,CFR,2017,In Compliance,1777 F ST NW,COUNCIL ON FOREIGN RELATIONS INC,2.0,WASHINGTON,DC,20006.0,1981,Office,Office,83209.0,67330.0,69,58.7,58.8,184.3,184.8,438.3,6.5,639.5,1158082.7,,38.89757120000001,-77.04127851
709,PM3857643,0182_0082,CSIS,2017,In Compliance,1616 RHODE ISLAND AVE NW,CENTER FOR STRATEGIC AND INTERNATIONAL STUDIES INC,2.0,WASHINGTON,DC,20036.0,2013,Office,Office,127980.0,120274.0,77,58.7,59.7,184.4,187.5,783.7,6.5,1690.5,2070670.3,,38.90648986,-77.03774396
710,PM2790969,0127_0050,1722 Eye Street,2017,In Compliance,1722 I ST NW,1722 EYE STREET ASSOCIATES,2.0,WASHINGTON,DC,20006.0,1981,Office,Office,167233.0,180564.0,78,58.9,60.7,184.9,190.7,1179.5,6.5,2775.5,3116288.0,,38.901038299999996,-77.04086515
711,PM4327667,0126_0060,1775 Eye Street,2017,In Compliance,1775 I ST NW,WRIT 1775 EYE STREET LLC,2.0,WASHINGTON,DC,20006.0,1965,Office,Office,286694.0,198893.0,83,60.1,60.4,185.0,185.3,1305.8,6.6,2322.7,3398265.2,3678.130939,38.90153902,-77.04126386
712,PM1356880,0126_0830,Barr Building,2017,In Compliance,0910 17TH ST NW,BARR BUILDING LLC,2.0,WASHINGTON,DC,20006.0,1927,Office,Office,115104.0,111980.0,76,62.1,61.8,185.3,183.1,741.3,6.6,1905.7,1886174.2,5148.603792,38.90188856,-77.03974526
713,PM23441,0075_0051,Rice Hall,2017,In Compliance,2121  I ST NW,THE GEORGE WASHINGTON UNIVERSITY,2.0,WASHINGTON,DC,20052.0,1967,Office,Office,70308.0,71543.0,63,73.5,77.0,185.6,187.0,493.9,6.9,1332.7,1087278.8,15502.997280000001,38.90096663,-77.04766613
715,PM1779473,0404_0816,801 9th Street NW,2017,In Compliance,0801 9TH ST NW,N S P VENTURES CORPORATION,2.0,WASHINGTON,DC,20001.0,1999,Office,Office,248052.0,238127.0,84,59.1,60.2,185.7,188.9,1562.3,6.6,4571.4,4127551.4,,38.90038608,-77.02361942
716,PM3028868,0486_0833,777 Sixth Street NW (EPL),2017,In Compliance,777 6TH ST NW,MEPT 777 6TH STREET LLC,2.0,WASHINGTON,DC,20001.0,2007,Office,Office,202184.0,202092.0,82,59.2,59.5,185.8,186.8,1326.6,6.6,2824.8,3504934.3,,38.89949616,-77.01958878
718,PM1357840,0630_0071,Hall of the States,2017,In Compliance,0400 NORTH CAPITOL ST NW,T-C HALL OF STATES OWNER LLC,6.0,WASHINGTON,DC,20001.0,1974,Office,Office,961282.0,606193.0,86,59.2,59.2,185.9,185.9,3980.1,6.6,11544.9,10515688.3,,38.89582982,-77.00960061
719,PM3955321,0093_0830,1666 Connecticut Ave NW,2017,In Compliance,1666 CONNECTICUT AV NW,1666 CONNECTICUT AVENUE LLC,2.0,WASHINGTON,DC,20009.0,1962,Office,Office,113302.0,84894.0,67,75.8,79.2,185.9,191.8,591.5,7.0,1192.9,1266387.6,21125.46916,38.91231957,-77.04544240000001
723,PM1556355,0169_0070,1776 G Street,2017,In Compliance,1776 G ST NW,WASHINGTON REAL ESTATE INVESTMENT TRUST,2.0,WASHINGTON,DC,20006.0,1978,Office,Office,361940.0,273870.6,81,59.5,59.5,186.7,186.7,1806.2,6.6,4846.4,4772098.4,,38.89810624,-77.04117807
725,PM4067117,0171_0815,1700 New York Avenue,2017,In Compliance,1700  NEW YORK AV NW,1700 NEW YORK AVENUE LLC,2.0,WASHINGTON,DC,20006.0,2013,Office,Office,124000.0,123017.0,78,59.5,60.5,186.8,189.9,811.7,6.6,1912.2,2144527.7,,38.89602623,-77.04034803
726,PM4929642,2047_0001,Fannie Mae 4250  (220626),2017,Data Under Review by DOEE,4250 CONNECTICUT AV NW,FEDERAL NATIONAL MORTGAGE ASSOCIATION & WMATA,3.0,WASHINGTON,DC,20008.0,1982,Office,Office,383495.0,220495.0,47,76.1,77.9,186.9,188.5,1540.5,7.0,4804.9,3951740.2,32858.52823,38.94507713,-77.063996
727,PM1406610,0168_0823,1750 Pennsylvania Ave,2017,In Compliance,1750 PENNSYLVANIA AV NW,JOHN HANCOCK LIFE INSURANCE COMPANY (U.S.A.),2.0,WASHINGTON,DC,20006.0,1963,Office,Office,440029.0,297909.0,85,66.9,67.7,187.2,186.7,2022.4,6.8,8056.6,4887702.4,32470.902000000002,38.89905363,-77.04076308
728,PM2701785,0291_0038,1275 Penn Ave NW,2017,Data Under Review by DOEE,0425 13TH ST NW,PENNSYLVANIA BUILDING ASSOCIATES LP,2.0,WASHINGTON,DC,20004.0,1955,Office,Office,289198.0,169065.0,69,59.6,59.6,187.2,187.2,1118.0,6.6,1700.7,2953778.0,,38.89596986,-77.02903567
729,PM3089076,0375_0836,Jamestown Premier 733 10th Street Corp.,2017,In Compliance,733 10TH ST NW,FIRST CONGREGATIONAL UNITED CHURCH OF CHRIST,2.0,WASHINGTON,DC,20001.0,2011,Office,Office,209664.0,200969.0,78,60.9,61.2,187.2,187.5,1335.1,6.6,4508.9,3473002.1,3871.0283990000003,38.89855076,-77.02556829999999
730,PM4938598,0253_0066,The Westory,2017,In Compliance,0607 14TH ST NW,REEP-OFC WESTORY DC LLC,2.0,WASHINGTON,DC,20005.0,2001,Office,Office,295451.0,273111.0,82,59.6,59.6,187.2,187.2,1805.9,6.6,3659.4,4771324.4,,38.89787507,-77.03130075
731,PM1423627,0184_0069,1629 K St NW,2017,In Compliance,1629 K ST NW,DAVIS BUILDING LLC,2.0,WASHINGTON,DC,20006.0,1963,Office,Office,127650.0,105891.0,70,68.7,70.9,187.7,190.0,724.9,6.8,2490.3,1716199.5,14180.193630000002,38.90293024,-77.03789817
734,PM3281658,0186_0041,US Chamber of Commerce,2017,In Compliance,1615 H ST NW,CHAMBER OF COMMERCE OF THE USA,2.0,WASHINGTON,DC,20062.0,1924,Office,Office,200891.0,185000.0,79,60.2,60.2,189.0,189.0,1235.1,6.7,5414.4,3263280.6,,38.90058315,-77.03752721
736,PM1427938,0214_0859,BAEV-LaSalle One Thomas Circle LLC,2017,In Compliance,0001 THOMAS CIR NW,BAEV-LASALLE  ONE THOMAS CIRCLE LLC,2.0,WASHINGTON,DC,20005.0,1981,Office,Office,339406.0,238444.0,82,60.4,60.4,189.5,189.5,1596.6,6.7,3474.3,4218301.3,,38.90537932,-77.03260141
737,PM1396921,0224_0824,Hamilton Square,2017,In Compliance,1401 F ST NW,FSP HAMILTON SQUARE LLC,2.0,WASHINGTON,DC,20005.0,1999,Office,Office,269472.0,343755.0,75,60.4,60.4,189.6,189.6,2302.5,6.7,11940.8,6083188.2,,38.89769429,-77.03227603
738,PM1657117,0166_0038,1775 Penn Ave,2017,In Compliance,1775 PENNSYLVANIA AVE NW,RS WASHINGTON CORPORATION,2.0,WASHINGTON,DC,20006.0,1975,Office,Office,309460.0,153527.0,75,60.4,60.4,189.7,189.7,1029.2,6.7,2096.4,2719051.3,,38.899877399999994,-77.04136526
739,PM2609487,0675_0846,FERC,2017,In Compliance,0888 1ST ST NE,ROSCHE/888 FIRST STREET NE LLC,6.0,WASHINGTON,DC,20002.0,1995,Office,Office,500000.0,558620.0,86,61.6,62.8,190.0,194.0,3765.6,6.7,7463.9,9821336.2,7980.926323000001,38.901537,-77.00711982
741,PM1238339,0215_0013,1101 Vermont,2017,In Compliance,1101 VERMONT AVE NW,1101 VERMONT AVE INVESTORS LLC,2.0,WASHINGTON,DC,20005.0,1981,Office,Office,208294.0,186367.0,76,67.3,68.9,190.9,191.8,1286.1,6.9,2920.9,3143526.5,18119.2277,38.90402712,-77.0324463
742,PM3990210,0253_0806,Ra,2017,In Compliance,1317 F ST NW,RA LLC,2.0,WASHINGTON,DC,20004.0,1886,Office,Office,58916.0,41619.0,48,84.0,89.3,190.9,193.3,304.0,7.3,171.9,599291.9,14531.035240000001,38.89762273,-77.03040504
747,PM3267015,0675_0850,840 First Street NE,2017,In Compliance,840 1ST ST NE,FP 840 FIRST STREET LLC,6.0,WASHINGTON,DC,20002.0,2003,Office,Office,266766.0,275617.0,84,63.8,66.3,192.0,198.9,1887.8,6.8,4186.4,4831950.9,11086.92563,38.90110524,-77.00688057
748,PM2946118,0158_0082,Paul H.Nitze,2017,In Compliance,1740 MASSACHUSETTS AVE NW,JOHNS HOPKINS UNIVERSITY,2.0,WASHINGTON,DC,20036.0,1962,Office,Office,78889.0,65273.0,78,78.4,82.1,192.4,193.8,470.7,7.2,1706.1,1007578.0,16821.718530000002,38.90809383,-77.04033421
749,PM25204,0116_0073,1919 M Street,2017,In Compliance,1919 M ST NW,1919 M STREET ASSOCIATES LP,2.0,WASHINGTON,DC,20036.0,1967,Office,Office,297005.0,269071.0,81,61.4,61.4,192.6,192.6,1831.3,6.8,4873.0,4838229.0,,38.90641907,-77.04457082
750,PM2896787,0126_0059,919 18th Street,2017,In Compliance,919 18TH ST NW,EPIC 919 LLC,2.0,WASHINGTON,DC,20006.0,1981,Office,Office,151448.0,101195.0,69,61.5,62.6,192.8,196.4,689.5,6.8,2449.8,1820127.8,109.23181159999999,38.90188755,-77.04128538
751,PM1433767,0247_0101,1121 Fourteenth Street NW (Neuroscience),2017,In Compliance,1121 14TH ST NW,SOCIETY OF NEUROSCIENCE,2.0,WASHINGTON,DC,20005.0,2006,Office,Office,112762.0,89372.0,81,61.5,61.5,193.0,193.0,609.5,6.8,1380.8,1610230.3,,38.90456703,-77.03163744
753,PM1030273,0118_0029,1919 Penn Ave,2017,In Compliance,1916 I ST NW,1919 PENNSYLVANIA ASSOCIATES LLC,2.0,WASHINGTON,DC,20006.0,1979,Office,Office,381951.0,265243.0,81,66.8,67.7,193.2,192.7,1844.2,7.0,6271.8,4579213.6,20899.77982,38.90118614,-77.04374594
754,PM3630815,PAR01730118,3600 NY Properties LLC,2017,In Compliance,3600 NEW YORK AVE NE,3600 NY PROPERTIES LLC,5.0,WASHINGTON,DC,20002.0,1965,Office,Office,128160.0,123000.0,64,80.8,84.6,193.2,195.8,896.6,7.3,623.7,1867531.8,35716.81928,38.91693735,-76.95506335
756,PM2745306,0290_0861,Columbia Square-2,2017,In Compliance,F ST NW,13TH & F ASSOCIATES LP & WMATA,2.0,WASHINGTON,DC,20004.0,1987,Office,Office,637000.0,674553.0,79,62.8,62.8,193.4,193.4,4627.1,6.9,13502.5,12058648.7,11851.74179,38.89719681,-77.02828568
758,PM4189342,0086_0042,1990 K Street-SV,2017,In Compliance,1990 K ST NW,CONSORTIUM TWO 1990 K ST LLC,2.0,WASHINGTON,DC,20006.0,1978,Office,Office,297949.0,270860.0,77,61.7,63.1,193.8,198.2,1854.5,6.8,6135.0,4899550.2,,38.90219236,-77.04455021
759,PM1380075,0076_0088,"2033 K Street, NW",2017,In Compliance,2033 - 2041 K ST NW,2033 K LP,2.0,WASHINGTON,DC,20036.0,1975,Office,Office,128767.0,134457.0,84,61.8,62.9,194.1,197.5,922.1,6.9,2054.1,2436305.7,,38.90317331,-77.04634227
760,PM1569687,0140_0095,1800 M Street,2017,In Compliance,1800 M ST NW,PRISA ACQUISITION LLC,2.0,WASHINGTON,DC,20036.0,1978,Office,Office,550211.0,590928.2,78,61.8,61.8,194.1,194.1,4051.3,6.9,18255.1,10703653.6,,38.90533768,-77.04223969
761,PM1069664,0403_0839,0900 Seventh Street NW (IBEW),2017,In Compliance,900 7TH ST NW,IBEW HEADQUARTERS BUILDING LLC,2.0,WASHINGTON,DC,20001.0,2004,Office,Office,300218.0,318853.0,79,61.9,61.9,194.3,194.3,2188.4,6.9,8511.2,5781960.5,,38.90115602,-77.02227684
762,PM1034459,0216_0034,1090 Vermont Avenue NW,2017,In Compliance,1090 VERMONT AVE NW,1090 VERMONT AVENUE NW ASSOCIATES LP,2.0,WASHINGTON,DC,20005.0,1980,Office,Office,229257.0,163045.0,86,62.0,62.2,194.6,195.4,1121.1,6.9,2988.0,2961906.8,,38.90342745,-77.03365240000001
763,PM1423392,0198_0846,1501 K St NW,2017,In Compliance,1501 K ST NW,I B ASSOCIATES LIMITED PARTNERSHIP,2.0,WASHINGTON,DC,20005.0,1923,Office,Office,502963.0,437222.0,79,62.0,62.0,194.6,194.6,3006.0,6.9,8643.5,7941845.2,,38.90295985,-77.03512046
764,PM1434327,0698_0032,20 M,2017,In Compliance,20 M ST SE,SOUTHEAST REALTY LLC,6.0,WASHINGTON,DC,20003.0,2006,Office,Office,297720.0,196545.0,86,62.0,62.7,194.8,196.8,1352.4,6.9,3808.1,3573155.7,,38.87679625,-77.00790436
765,PM1497433,0214_0106,1101 15th Street,2017,In Compliance,1101 - 1117 15TH ST NW,1101 FIFTEENTH LLC,2.0,WASHINGTON,DC,20005.0,1976,Office,Office,213934.0,171350.0,75,62.1,74.4,195.0,233.7,1180.7,6.9,3850.6,3119521.8,,38.90415805,-77.03421391
767,PM1425442,0252_0083,700 13th Street,2017,In Compliance,0700 13TH ST NW,700 THIRTEENTH STREET LLC,2.0,WASHINGTON,DC,20005.0,1988,Office,Office,360016.0,258655.0,75,62.3,62.3,195.5,195.5,1786.9,6.9,3658.7,4721004.3,,38.89874149,-77.03000151
769,PM2807339,0516S_0861,455 Mass Ave,2017,In Compliance,455 MASSACHUSETTS AV,SQUARE 516 OFFICE VENTURE LLC,6.0,WASHINGTON,DC,20001.0,2008,Office,Office,357180.0,247330.0,84,62.3,62.4,195.7,195.8,1710.3,6.9,6132.1,4518778.6,,38.90104852,-77.01773014
772,PM1242253,0183_0883,NGS Headquarters,2017,In Compliance,1145 17TH ST NW,NATIONAL GEOGRAPHIC SOCIETY,2.0,WASHINGTON,DC,20036.0,1983,Office,Office,598366.0,746237.0,84,76.8,77.6,196.4,197.2,5435.2,7.3,10705.7,12112799.6,160125.0027,38.90519711,-77.03815544
773,PM3520541,0250_0046,1333 H St NW,2017,In Compliance,1333 H ST NW,FHF I 1333 H STREET LLC,2.0,WASHINGTON,DC,20005.0,1982,Office,Office,410210.0,274041.0,88,65.3,65.3,196.5,196.5,1920.3,7.0,6988.6,4917184.9,11135.414040000001,38.90050458,-77.03112149
775,PM3494759,0090_0032,2001 S Street,2017,In Compliance,2001 S ST NW,20TH & S ASSOCIATES LLC,2.0,WASHINGTON,DC,20009.0,1969,Office,Office,85007.0,59283.0,91,72.4,73.2,197.0,196.7,426.3,7.2,8550.1,1005418.0,8621.95054,38.91434974,-77.04508348
776,PM6054805,0100_0120,2001 L Street N.W.,2017,In Compliance,2001 L ST NW,2001 L STREET LLC,2.0,WASHINGTON,DC,20036.0,1986,Office,Office,161347.0,169727.0,73,62.8,62.8,197.2,197.2,1182.4,7.0,3318.9,3123923.8,,38.90404699,-77.04529671
778,PM3983263,0115_0081,The Sunderland Building,2017,In Compliance,1320 19TH ST NW,THE SUNDERLAND BUILDING LIMITED PARTNERSHIP,2.0,WASHINGTON,DC,20036.0,1969,Office,Office,59660.0,51424.0,34,100.4,98.5,197.7,195.8,405.4,7.9,1294.3,665538.0,28898.07803,38.90808565,-77.04376909
780,PM1396919,0107_0077,1875 K Street,2017,In Compliance,1845 K ST NW,CP 1875 K STREET LLC,2.0,WASHINGTON,DC,20036.0,2001,Office,Office,267097.0,206247.0,78,63.0,63.0,197.9,197.9,1442.2,7.0,2938.6,3810273.1,,38.90304426,-77.04304611
781,PM3510427,0627_0013,06270013_500 New Jersey Avenue,2017,In Compliance,500 NEW JERSEY AVE NW,NATIONAL ASSOCIATION OF REALTORS,6.0,WASHINGTON,DC,20001.0,2004,Office,Office,105000.0,104358.4,76,63.2,64.2,198.5,201.5,731.7,7.0,2235.8,1933050.9,,38.89652228,-77.01191263
782,PM1649511,0024_0871,2445 M Street,2017,In Compliance,2445 M ST NW,WRIT 2445 M LLC,2.0,WASHINGTON,DC,20037.0,1986,Office,Office,397105.0,305149.0,86,63.4,64.5,199.1,202.6,2146.4,7.0,6070.5,5670971.1,,38.90558858,-77.05263423
783,PM2972719,0458_0824,"601 Indiana Ave., NW",2017,In Compliance,601 INDIANA AVE NW,BHB LIMITED PARTNERSHIP,2.0,WASHINGTON,DC,20004.0,1963,Office,Office,57083.0,56651.0,74,80.9,85.3,199.3,201.1,422.8,7.5,1755.0,908449.6,14856.851869999999,38.89464838,-77.02026341
784,PM3496813,0161_0030,Eleven Hundred Connecticut Avenue,2017,In Compliance,1100 - 1106 CONNECTICUT AV NW,ELEVEN HUNDRED CONN AVE ASSOCIATES LLC,2.0,WASHINGTON,DC,20036.0,1968,Office,Office,232614.0,182213.0,69,78.0,80.2,199.3,200.1,1346.6,7.4,2603.6,2999784.9,39752.46219,38.90408014,-77.04064022
786,PM4852292,5784_1100,2235 Shannon Place,2017,In Compliance,2235  SHANNON PL SE,GEORGE T CURTIS III TRUSTEE,8.0,WASHINGTON,DC,20020.0,1962,Office,Office,82134.0,82184.0,60,63.6,63.6,199.6,199.6,579.4,7.0,280483.9,1530770.0,,38.86460854,-76.99134601
787,PM3989751,0253_0807,International Office Building - 1319 F Street,2017,Data Under Review by DOEE,1319 - 1321 F ST NW,OLIVE LIMITED PARTNSHIP,2.0,WASHINGTON,DC,20004.0,1912,Office,Office,64850.0,61320.0,70,76.0,76.0,200.6,200.6,452.4,7.4,1777180.2,1039030.2,11138.79991,38.89761259,-77.03059559
788,PM1384590,0345_0041,Washington Center,2017,In Compliance,1001 G ST NW,WASHINGTON CENTER TRUSTEE LLC,2.0,WASHINGTON,DC,20001.0,1989,Office,Office,562746.0,366607.0,80,63.9,63.9,200.7,200.7,2599.3,7.1,82.8,6867348.9,,38.89871901,-77.02648772
792,PM3435335,0248_0830,One Franklin Square 2,2017,In Compliance,1301 K ST NW,1301 K STREET LP,2.0,WASHINGTON,DC,20005.0,1990,Office,Office,81989.0,643325.0,67,65.1,65.1,201.7,201.7,4598.5,7.1,6444.7,12029990.2,8502.68237,38.90293367,-77.03052293
793,PM4795024,0100_0116,Lafayette Centre,2017,In Compliance,1120 20TH ST NW,LAFAYETTE CENTER PROPERTY LLC,2.0,WASHINGTON,DC,20036.0,1985,Office,Office,331554.0,887499.0,72,64.3,64.3,201.8,201.8,6328.7,7.1,21857.7,16720557.5,,38.90485379999999,-77.0452277
796,PM1960203,0720_0824,Station Place I,2017,In Compliance,100 F ST NE,SECOND STREET HOLDINGS LLC,6.0,WASHINGTON,DC,20549.0,2004,Office,Office,929605.0,788412.0,84,64.5,64.5,202.5,202.5,5641.5,7.2,11478.1,14904962.1,,38.89822937,-77.00398344
798,PM3474408,0220_0064,1400 Eye Street,2017,In Compliance,1400 I ST NW,"""ZG 1400 EYE",2.0,WASHINGTON,DC,20005.0,1982,Office,Office,257532.0,175760.0,78,66.2,66.2,203.4,203.4,1268.9,7.2,4052.7,3299480.9,3775.954832,38.90103171,-77.03218519
800,PM2999304,0531_0036,DC0321ZZ - JUDICIARY CENTER,2017,In Compliance,555 4TH ST NW,555 FOURTH STREET ASSOCIATES,2.0,WASHINGTON,DC,20001.0,1982,Office,Office,472170.0,345776.0,79,65.0,65.0,204.0,204.0,2491.4,7.2,699.5,6582348.9,,38.89685236,-77.01564074
801,PM5019130,0673_0847,TA0121 - 1100 FIRST ST,2017,Data Under Review by DOEE,1100 1ST ST NE,UNIZO REAL ESTATE DC FOUR LLC,6.0,WASHINGTON,DC,20002.0,2009,Office,Office,360000.0,343979.0,79,67.1,67.4,204.6,204.9,2502.0,7.3,5086.7,6471073.8,9921.594344,38.90401804,-77.00629749
802,PM1356874,0216_0033,1015 15th Street,2017,In Compliance,1015 15TH ST NW,1015 15TH STREET INC,2.0,WASHINGTON,DC,20005.0,1979,Office,Office,252721.0,193006.0,76,66.1,66.0,205.2,204.7,1402.8,7.3,4462.7,3675964.1,2164.227057,38.90308514,-77.03413181
803,PM2058639,0456_3040,AARP HQ,2017,In Compliance,0601 E ST NW,601-611 E ST NW A CONDOMINIUM,2.0,WASHINGTON,DC,20049.0,1991,Office,Office,443146.0,514474.0,76,65.5,66.4,205.5,208.4,3735.3,7.3,7708.3,9868905.7,,38.89714402,-77.02021329
807,PM3990197,0250_0049,Ruthenium,2017,In Compliance,1331 H ST NW,RUTHENIUM LLC,2.0,WASHINGTON,DC,20005.0,1964,Office,Office,90458.0,74898.0,57,77.2,80.5,206.6,210.5,567.2,7.6,1897.2,1318366.1,12838.303020000001,38.90052695,-77.03067223
808,PM4376473,0127_0051,Paralyzed Veterans of America,2017,In Compliance,801 18TH ST NW,801 18TH STREET ASSOCIATES,2.0,WASHINGTON,DC,20006.0,1982,Office,Office,57976.0,46363.0,46,65.8,67.1,206.7,210.8,338.6,7.3,884.8,894676.0,,38.90051957,-77.04146478
809,PM1423975,0185_0042,1666 K St NW,2017,In Compliance,1666 - 1632 K ST NW,1620 K LLC,2.0,WASHINGTON,DC,20006.0,1974,Office,Office,453352.0,293912.0,64,65.9,65.9,206.8,206.8,2147.6,7.3,9126.3,5674163.9,,38.90223469,-77.03770249
810,PM2035970,0253_0068,The Henry J Kaiser Family Foundation,2017,In Compliance,1330 G ST NW,HENRY J KAISER FAMILY FOUNDATION,2.0,WASHINGTON,DC,20005.0,2003,Office,Office,95673.0,64160.0,62,76.4,78.6,207.5,207.4,52.7,0.8,955.8,1145371.7,9915.057288,38.89806328,-77.03093447
811,PM2704668,0377_0040,The Pew Charitable Trusts,2017,In Compliance,0901 E ST NW,THE PEW CHARITABLE TRUSTS CO INC,2.0,WASHINGTON,DC,20004.0,1989,Office,Office,345480.0,260064.8,77,66.1,67.7,207.5,212.6,1906.4,7.3,5910.5,5036848.1,,38.89674159,-77.02417364
812,PM6723153,0184_0075,"1602 L Street, NW",2017,Data Under Review by DOEE,1602 L ST NW,1602 IS LLC,2.0,WASHINGTON,DC,20036.0,2006,Office,Office,62476.0,62476.0,29,74.2,74.2,207.6,207.6,469.3,7.5,1157.7,1357759.9,,38.90359148,-77.03722855
813,PM3964249,0164_0001,1701 K Street,2017,Data Under Review by DOEE,1701 K ST NW,1701 K LLC,2.0,WASHINGTON,DC,20036.0,1954,Office,Office,70785.0,64425.0,65,84.6,89.0,207.7,209.6,501.4,7.8,1928.3,1073347.7,17910.59075,38.90297572,-77.03878604
814,PM3994435,2051_0006,4201 Connecticut Ave NW,2017,In Compliance,4201 CONNECTICUT AVE NW,BRICKMAN 4201 CONNECTICUT AVENUE LLC,3.0,WASHINGTON,DC,20008.0,1964,Office,Office,109032.0,68640.0,54,66.4,67.7,208.5,212.5,505.6,7.4,677.6,1335794.2,,38.94347706,-77.06263696
815,PM1192428,0457_0038,The Patrick Henry Building,2017,In Compliance,601 D ST NW,LHL REALTY COMPANY DC LLC,2.0,WASHINGTON,DC,20530.0,1974,Office,Office,603712.0,541518.0,78,67.2,67.3,208.8,208.8,4004.4,7.4,9902.1,10492463.0,5945.20118,38.89507443,-77.02054111
816,PM16885,0214_0103,1133 15th Street,2017,In Compliance,1133 15TH ST NW,1133 FIFTEENTH STREET LLC,2.0,WASHINGTON,DC,20005.0,1969,Office,Office,286200.0,207696.0,82,66.5,68.8,208.9,216.0,1533.1,7.4,4462.1,4050514.3,,38.90486139,-77.03402384
817,PM3472208,0085_0830,1900 L Street,2017,In Compliance,1900 L ST NW,ZG 1900 L STREET LLC,2.0,WASHINGTON,DC,20036.0,1964,Office,Office,155462.0,101978.0,76,78.9,80.9,210.1,210.1,786.3,7.7,2372.9,1819384.9,18379.7707,38.90359463,-77.04373147
818,PM3964239,0165_0813,1634 Eye Street,2017,Data Under Review by DOEE,1634 I ST NW,1634 EYE LLC,2.0,WASHINGTON,DC,20006.0,1961,Office,Office,76697.0,65245.0,66,85.2,90.1,210.4,213.8,513.5,7.9,2956.8,1107204.4,17785.21009,38.90113173,-77.03899379
819,PM1446135,0428_0020,810 7th St N.W.,2017,In Compliance,0810 7TH ST NW,810 SEVENTH AVENUE SPE LLC,2.0,WASHINGTON,DC,20001.0,1990,Office,Office,405885.0,282901.0,89,67.1,67.7,210.5,212.7,2104.3,7.4,5468.5,5559651.8,,38.90063284,-77.02220151
821,PM1050505,0140_0089,1899 L Street,2017,In Compliance,1899 L ST NW,1899 L  STREET TOWER LLC,2.0,WASHINGTON,DC,20036.0,1978,Office,Office,147460.0,159817.0,81,67.1,67.1,210.6,210.6,1189.3,7.4,4244.5,3142118.5,,38.90417373,-77.04292909
822,PM1711353,1661_0817,Chevy Chase Plaza,2017,In Compliance,5301 WISCONSIN AV NW,5301 WISCONSIN AVENUE ASSOCIATES LLC,3.0,WASHINGTON,DC,20015.0,1988,Office,Office,250155.0,185198.0,68,67.1,67.1,210.7,210.7,1378.4,7.4,3647.4,3641768.7,,38.95934321,-77.08433768
823,PM2590139,0800_0029,300 M Street SE,2017,In Compliance,300 M ST SE,FEDERAL CENTER LP,6.0,WASHINGTON,DC,20003.0,2001,Office,Office,397139.0,299132.0,68,67.2,67.3,210.9,211.5,2228.9,7.5,5920.4,5888836.8,,38.87685912,-77.00132817
824,PM5829,0183_0857,1101 17th Street,2017,In Compliance,1101 17TH ST NW,CESC 1101 17TH STREET LIMITED PARTNERSHIP,2.0,WASHINGTON,DC,20036.0,1964,Office,Office,330550.0,223218.0,79,90.0,95.1,211.4,214.8,1789.0,8.0,7474.8,3659844.4,76010.00224,38.90405585,-77.03797318
825,PM2701797,0317_0841,1101 New York Ave,2017,In Compliance,1101 NEW YORK AV,1101 NEW YORK HOLDINGS LLC,2.0,WASHINGTON,DC,20005.0,2007,Office,Office,512092.0,392374.0,78,68.6,69.0,211.6,212.0,2944.5,7.5,6943.2,7676016.1,7367.592573999999,38.90168468,-77.02753907
827,PM1342182,0574_0025,101 Constitution,2017,In Compliance,101 CONSTITUTION AVE NW,UNITED BROTHERHD CRPT JNR AM NATL H S FD,6.0,WASHINGTON,DC,20001.0,2002,Office,Office,561068.0,527366.0,79,67.8,67.8,212.9,212.9,3965.7,7.5,11232.4,10477438.6,,38.89279296,-77.01306886
828,PM3761920,0165_0814,818 Connecticut LLC,2017,In Compliance,0818 CONNECTICUT AV NW,818 CONNECTICUT LLC,2.0,WASHINGTON,DC,20006.0,1977,Office,Office,93196.0,93189.0,83,67.8,67.8,212.9,212.9,700.8,7.5,2380.2,1851639.1,,38.90090378,-77.03881198
829,PM13149,0072_0076,2101 L St NW,2017,In Compliance,2101 L ST NW,CESC 2101 L STREET LLC,2.0,WASHINGTON,DC,20037.0,1978,Office,Office,370000.0,381518.0,73,68.0,68.0,213.5,213.5,2877.1,7.5,12495.9,7601306.1,,38.90437577,-77.0468819
830,PM3411637,0390_0053,NBL Associates,2017,In Compliance,800 9TH ST SW,NBL ASSOCIATES LP,6.0,WASHINGTON,DC,20024.0,1986,Office,Office,160748.0,120838.0,82,68.1,68.6,213.9,215.3,913.3,7.6,2219.2,2412838.7,,38.88059988,-77.02419373
831,PM1787720,0327_0840,Potomac Center North,2017,In Compliance,500 12TH ST SW,POTOMAC CENTER NORTH INC,6.0,WASHINGTON,DC,20024.0,1969,Office,Office,671975.0,504155.0,90,68.4,68.0,214.9,213.5,3827.3,7.6,8554.1,10111798.2,,38.88398594,-77.02748624
832,PM4865660,0377_0038,999 E Street,2017,In Compliance,999 E ST NW,999 E STREET OWNER LLC,2.0,WASHINGTON,DC,20463.0,1931,Office,Office,183430.0,174072.0,70,93.0,95.5,215.0,215.4,1424.8,8.2,5341.7,2862682.3,64259.82925,38.89633812,-77.02556935
834,PM1229780,0248_0069,1300 L Street,2017,In Compliance,1300 L ST NW,AMERICAN POSTAL WORKERS UNION HOLDING CORPORATION,2.0,WASHINGTON,DC,20005.0,1986,Office,Office,117016.0,92054.0,62,74.7,74.7,215.5,215.5,714.3,7.8,1447.7,1769498.9,8385.83161,38.90352142,-77.02999206
835,PM1331462,0105_0845,1801 Pennsylvania Ave.,2017,In Compliance,1801 PENNSYLVANIA AVE NW,1801 PENNSYLVANIA AVENUE LLC,2.0,WASHINGTON,DC,20006.0,1991,Office,Office,276842.0,214997.0,66,69.1,70.6,215.6,220.3,1639.7,7.6,3709.6,4314468.5,1266.0483800000002,38.90076372,-77.04189977
836,PM1428777,0742_0039,Square 742 LLC,2017,In Compliance,1100 NEW JERSEY AV,SQUARE 742 LLC,6.0,WASHINGTON,DC,20003.0,2004,Office,Office,409428.0,303517.0,87,73.0,73.1,216.1,214.0,2347.7,7.7,8274.3,5937873.4,18875.9275,38.87695905,-77.00388117
838,PM3220077,0168_0051,1730 Pennsylvania Ave NW,2017,In Compliance,1730 PENNSYLVANIA AV NW,1730 PENNSYLVANIA AVENUE LP,2.0,WASHINGTON,DC,20006.0,1972,Office,Office,177924.0,259062.0,76,68.9,68.9,216.2,216.2,1978.6,7.6,5145.1,5227620.6,,38.89874481,-77.04022991
839,PM1397164,0218_0077,Franklin Tower,2017,In Compliance,1401 I ST NW,1401 EYE HOLDINGS LLC,2.0,WASHINGTON,DC,20005.0,1968,Office,Office,315944.0,228001.3,73,68.9,68.9,216.5,216.5,1743.7,7.6,3379.6,4606850.4,,38.90167406,-77.03242402
843,PM2451324,0105_0843,1899 Pennsylvania Avenue,2017,In Compliance,1899 PENNSYLVANIA AVE NW,1899 PENN OWNER LP,2.0,WASHINGTON,DC,20006.0,1925,Office,Office,195338.0,205741.0,78,72.2,72.2,217.1,217.1,1593.1,7.7,3421.5,4074277.1,9602.285143000001,38.90052,-77.04300737
844,PM4018381,0733_0048,Republican National Committee,2017,Data Under Review by DOEE,0310 1ST ST SE,REINCE PRIEBUS TRUSTEES,6.0,WASHINGTON,DC,20003.0,1972,Office,Office,86102.0,76757.0,36,81.1,80.8,217.2,214.6,609.6,7.9,2644.6,1697482.0,4299.40961,38.88550047,-77.00559024
846,PM1811655,0347_0022,Lincoln Square,2017,In Compliance,555 11TH ST NW,555 11TH OWNER LLC,2.0,WASHINGTON,DC,20004.0,2000,Office,Office,573411.0,414101.0,72,69.7,69.7,218.8,218.8,3201.0,7.7,11347.0,8457180.0,,38.89670056,-77.026359
847,PM2895757,0289_0832,1201 F St,2017,In Compliance,1201 F ST NW,1201 F STREET LLC,2.0,WASHINGTON,DC,20004.0,2000,Office,Office,325757.0,240578.0,70,70.1,71.1,219.3,222.4,1865.1,7.8,6457.9,4915808.9,843.0586380000001,38.89766464,-77.02852325
848,PM4561384,0070_0188,Duke Ellington Building,2017,In Compliance,2121 WARD PL NW,ELLINGTON BUILDING LLC,2.0,WASHINGTON,DC,20037.0,1985,Office,Office,55474.0,55474.0,65,69.8,69.8,219.3,219.3,429.8,7.7,1411.5,1135612.4,,38.90640816,-77.04757005
849,PM3350280,0117_0078,"Prudence, LLC",2017,In Compliance,1120 19TH ST NW,PRUDENCE LLC,2.0,WASHINGTON,DC,20036.0,1975,Office,Office,110550.0,116140.0,63,69.9,70.9,219.6,222.5,901.0,7.8,3682.4,2380494.1,,38.90455579,-77.04385972
850,PM3490065,0117_0079,1900 M,2017,In Compliance,1900 M ST NW,1900 M L L C,2.0,WASHINGTON,DC,20036.0,1975,Office,Office,112182.0,119549.0,63,69.9,69.9,219.6,219.6,927.6,7.8,2347.2,2450712.9,,38.90536861,-77.04387152
853,PM2293741,0122_0028,Old Main,2017,In Compliance,1922 F ST NW,GEORGE WASHINGTON UNIVERSITY,2.0,WASHINGTON,DC,20052.0,1915,College/University,Office,55789.0,51261.0,55,97.0,100.6,220.6,222.3,432.5,8.4,252.6,854168.4,20560.42608,38.89712029,-77.04431914
854,PM3680293,0139_0810,The Ring Building,2017,In Compliance,1200 18TH ST NW,RING ASSOCIATES LLC,2.0,WASHINGTON,DC,20036.0,1947,Office,Office,192584.0,185000.0,54,70.4,71.0,220.9,222.9,1443.9,7.8,5641.9,3814812.0,,38.90605288,-77.04191764
855,PM23246,0166_0033,1747 Penn Ave,2017,In Compliance,1747 - 1755 PENNSYLVANIA AV NW,1747 PENNSYLVANIA AVENUE ASSOCIATES LP,2.0,WASHINGTON,DC,20006.0,1969,Office,Office,219854.0,164692.0,73,71.4,71.5,221.5,221.6,1292.3,7.8,3529.2,3385320.6,2055.6000050000002,38.89969121,-77.04076714
856,PM4390334,0376_0068,900 G,2017,In Compliance,900 G ST NW,ASB MRP 900 G STREET LLC,2.0,WASHINGTON,DC,20001.0,2014,Office,Office,102133.0,112635.0,63,70.6,70.6,221.6,221.6,881.9,7.8,3110.9,2330077.4,,38.89814924,-77.02439197
860,PM4576132,0715_2974,111 K Street,2017,In Compliance,111 K ST NE,111 K STREET CONDO,6.0,WASHINGTON,DC,20002.0,2011,Office,Office,3282699.0,84540.0,38,70.8,72.0,222.2,226.1,663.5,7.8,720.9,1753068.4,,38.90224351,-77.0056017
863,PM2267,0253_0847,600 Thirteenth St,2017,In Compliance,0600 13TH ST NW,UNION INVESTMENT REAL ESTATE GMBH,2.0,WASHINGTON,DC,20005.0,1998,Office,Office,251557.0,257943.0,70,71.0,70.9,222.9,222.7,2030.8,7.9,6792.8,5365536.0,,38.89784861,-77.02987163
864,PM4562546,0024_0113,Heart House,2017,In Compliance,2400 N ST NW,AMERICAN COLLEGE OF CARDIOLOGY FOUNDATION,2.0,WASHINGTON,DC,20037.0,1983,Office,Office,241374.0,178293.0,72,72.0,71.2,223.3,220.1,1410.7,7.9,1803.8,3692879.2,2448.880433,38.90700472,-77.05195297
865,PM3512309,0157_0864,Brookings Institution Annex,2017,In Compliance,1775 MASSACHUSETTS AV NW,BROOKINGS INSTITUTION,2.0,WASHINGTON,DC,20036.0,1959,Office,Office,173315.0,67068.0,56,90.6,95.9,223.4,227.5,560.7,8.4,1076.6,1207039.7,19546.970559999998,38.90913211,-77.04064606
867,PM25091,0140_0093,1801 L St. N.W.,2017,In Compliance,1801 L ST NW,BARRY L SCHREIBER TRUSTEE,2.0,WASHINGTON,DC,20036.0,1987,Office,Office,173965.0,222847.0,79,71.4,71.4,224.3,224.3,1766.1,7.9,3832.6,4666182.4,,38.90399047,-77.04200669
868,PM1406853,0675_0847,"830 First Street, NE",2017,In Compliance,830 1ST ST NE,CIM URBAN REIT PROPERTIES VI LP,6.0,WASHINGTON,DC,20002.0,2001,Office,Office,233962.0,252992.0,79,71.5,73.5,224.4,230.7,2785.1,11.0,3475.2,5299147.7,,38.90107988,-77.00762737
869,PM3475610,0117_0879,1133 20th Street Building Corp,2017,In Compliance,1133 20TH ST NW,1133 20TH ST BUILDING CORP,2.0,WASHINGTON,DC,20036.0,1984,Office,Office,165577.0,128261.0,59,71.5,71.5,224.6,224.6,1017.5,7.9,1871.9,2688397.2,,38.90495244,-77.04454167
870,PM3989890,0184_0805,16 Cobalt,2017,In Compliance,1627 K ST NW,16 COBALT LLC,2.0,WASHINGTON,DC,20006.0,1977,Office,Office,68634.0,63510.0,56,71.7,71.7,224.8,224.8,504.5,7.9,3354.3,1332151.9,56.07618424,38.90291906,-77.03767704
871,PM3997131,0247_0093,American Dental Assoication,2017,In Compliance,1111 14TH ST NW,AMERICAN DENTAL ASSOCIATION,2.0,WASHINGTON,DC,20005.0,1983,Office,Office,82682.0,82682.0,50,72.0,72.0,226.0,226.0,660.1,8.0,1561.8,1743998.4,,38.90428941,-77.03157196
872,PM1765420,0216_0027,1010 Vermont Avenue SPE LLC,2017,Data Under Review by DOEE,1010 VERMONT AV NW,1010 VERMONT AV SPE LLC,2.0,WASHINGTON,DC,20005.0,1926,Office,Office,75579.0,68988.0,47,82.8,83.6,226.4,229.1,569.4,8.3,2250.1,1349160.4,11058.99867,38.90317429,-77.03377102
873,PM1417479,0458_0021,625 Indiana Avenue,2017,In Compliance,625 INDIANA AVE NW,GPT PROPERTIES TRUST,2.0,WASHINGTON,DC,20004.0,1988,Office,Office,186071.0,163747.0,68,72.2,72.2,226.7,226.7,1311.2,8.0,5290.2,3464356.6,,38.89456128,-77.02074465
874,PM2726905,0117_0084,The Vanguard Building,2017,In Compliance,1111 20TH ST NW,VANGUARD ASSOCIATES,2.0,WASHINGTON,DC,20526.0,1963,Office,Office,229401.0,169111.0,78,72.3,73.8,227.0,231.8,1356.2,8.0,2740.2,3582997.5,,38.90409117,-77.04423369
875,PM5133861,0254_0053,Normandy - National Press Building,2017,Data Under Review by DOEE,529 14TH ST NW,WILSON NPB LLC,2.0,WASHINGTON,DC,20045.0,1928,Office,Office,982437.0,488727.0,55,92.7,95.4,227.1,230.0,4159.8,8.5,18429.1,8893864.2,149403.5345,38.897026700000005,-77.03154892
878,PM1495502,0186_0040,"1620 Eye, LLC",2017,In Compliance,1620 I ST NW,1620 EYE LLC,2.0,WASHINGTON,DC,20006.0,1971,Office,Office,125367.0,117509.0,64,72.6,72.6,227.9,227.9,946.2,8.1,3788.0,2499814.9,,38.90108618,-77.03750142
881,PM4531849,0342_0060,Cato Institute,2017,In Compliance,1000 MASSACHUSETTS AV,CATO INSTITUTE INC,2.0,WASHINGTON,DC,20001.0,1993,Office,Office,104133.0,75977.0,55,72.7,74.5,228.4,233.9,613.1,8.1,1859.6,1619699.8,,38.90333457,-77.02628587
882,PM3481129,0464_0026,300 SEVENTH ST NY OWNER LLC,2017,In Compliance,0300 7TH ST SW,WASHINGTON METROPOLITAN AREA TRANSIT AUTHORITY (WMATA),6.0,WASHINGTON,DC,20024.0,1965,Office,Office,201896.0,145187.0,66,76.4,77.5,228.8,229.9,1185.9,8.2,2073.9,3023987.2,7789.735044,38.885228600000005,-77.02100862
883,PM3998608,5783_0829,DC Lottery Building,2017,In Compliance,2101 MARTIN LUTHER KING JR AV SE,GOVERNMENT OF THE DISTRICT OF COLUMBIA DEPARTMENT OF GENERAL SERVICES,8.0,WASHINGTON,DC,20020.0,1947,Office,Office,84496.0,84496.0,49,86.5,86.5,229.3,229.3,711.8,8.4,328.8,1640757.9,17087.76613,38.865415899999995,-76.98968531
885,PM1831622,0628_0896,Normandy- Capitol Place III,2017,In Compliance,0050 F ST NW,UNIZO REAL ESTATE DC TWO LLC,6.0,WASHINGTON,DC,20001.0,1985,Office,Office,266907.0,212247.0,74,73.1,73.1,229.4,229.4,1720.0,8.1,6677.5,4544241.0,,38.89707194,-77.0103936
886,PM6244129,0214_0109,1120 Vermont Avenue NW,2017,In Compliance,1120 VERMONT AVE NW,1120 VERMONT AVE ASSOCIATES LLP,2.0,WASHINGTON,DC,20005.0,1981,Office,Office,666961.0,528536.0,70,73.1,73.1,229.5,229.5,4284.9,8.1,8945.1,11320790.3,,38.90482295,-77.03299820000001
888,PM3990119,0630_0072,IBT Annex,2017,Data Under Review by DOEE,25 LOUISIANA AVE NW,INTERNATIONAL BROTHERHOOD OF TEAMSTERS,6.0,WASHINGTON,DC,20001.0,1955,Office,Office,92327.0,75472.0,54,73.4,75.0,230.5,235.6,614.6,8.1,1248.0,1623830.3,,38.89505257,-77.00995964
889,PM3088847,0117_0081,1140 19th Street NW,2017,In Compliance,1140 19TH ST NW,1140 19TH LLC,2.0,WASHINGTON,DC,20036.0,1980,Office,Office,82821.0,78643.0,44,79.4,79.8,232.3,233.4,655.6,8.3,1560.7,1641460.9,6469.138779999999,38.90496224,-77.04388326
890,PM3505691,0873_0112,600 Pennsylvania,2017,In Compliance,600 PENNSYLVANIA AVE SE,BDC PENNSYLVANIA AVENUE LLC,6.0,WASHINGTON,DC,20003.0,1975,Office,Office,182152.0,87630.0,55,74.3,75.9,233.4,238.2,722.7,8.2,3284.1,1909366.6,,38.88568192,-76.99770840000001
891,PM3998790,1196_0191,Georgetown Place South,2017,In Compliance,1101 - 1115 30TH ST NW,COLUMBIA REALTY VENTRUE LLC,2.0,WASHINGTON,DC,20007.0,1926,Office,Office,278347.0,89058.0,51,106.4,114.8,234.4,242.3,805.5,9.0,327.0,1531481.8,42524.06314,38.90466345,-77.05824395
892,PM1784213,0158_0080,American Legacy Foundation,2017,In Compliance,1724 MASSACHUSETTS AVE NW,AMERICAN LEGACY FOUNDATION,2.0,WASHINGTON,DC,20036.0,1981,Office,Office,67223.0,43000.0,43,74.7,76.3,234.5,239.7,356.3,8.3,467.0,941273.7,,38.90789449,-77.03949037
893,PM3531245,0289_0831,"1200 G Street, NW",2017,In Compliance,1200 G ST NW,12TH & G STREETS ASSOCIATES,2.0,WASHINGTON,DC,20005.0,1991,Office,Office,269751.0,196325.0,66,78.7,77.8,234.6,232.0,1646.0,8.4,4354.1,4185512.4,11644.18082,38.89817806,-77.02826648
894,PM3512975,0458_0023,633 Indiana,2017,In Compliance,633 INDIANA AVE NW,INDIANA ASSOCIATES,2.0,WASHINGTON,DC,20004.0,1968,Office,Office,175739.0,153031.0,65,88.6,89.8,235.0,234.0,1321.4,8.6,2969.6,3047555.8,31611.634410000002,38.89438319,-77.02117156
895,PM1327939,0168_0050,1700 Pennsylvania Avenue NW (Mills),2017,In Compliance,1700 PENNSYLVANIA AV NW,THE MILLS BUILDING ASSOCIATES LLC,2.0,WASHINGTON,DC,20006.0,1965,Office,Office,244556.0,176716.0,62,94.8,98.9,235.4,238.0,1553.9,8.8,4475.4,3367227.7,52604.7119,38.89865698,-77.03991253
896,PM3636920,0755_0003,The Heritage Foundation 214 Building,2017,In Compliance,208 MASSACHUSETTS AVE NE,THE HERITAGE FOUNDATION,6.0,WASHINGTON,DC,20002.0,1960,Office,Office,63291.0,75954.0,66,75.1,75.1,235.7,235.7,632.6,8.3,960.7,1671257.1,,38.89533555,-77.00295008
898,PM1583329,0299_0833,Portals II,2017,In Compliance,0445 12TH ST SW,PARCEL 49C LIMITED PARTNERSHIP,6.0,WASHINGTON,DC,20554.0,1998,Office,Office,633800.0,652702.0,80,75.5,75.4,237.1,236.8,5466.9,8.4,15480.3,14443854.8,,38.8832934,-77.02851429
899,PM2015806,0165_0028,800 Connecticut Ave. NW,2017,In Compliance,800 CONNECTICUT AV,JERRY MAIATICO TRUSTEE,2.0,WASHINGTON,DC,20006.0,1991,Office,Office,221171.0,125938.0,53,75.9,75.9,238.4,238.4,1060.8,8.4,3146.2,2802798.5,,38.90051289,-77.03844615
902,PM3016235,0126_0061,Farragut Center,2017,In Compliance,1727 I ST NW,FARRAGUT CENTER LLC,2.0,WASHINGTON,DC,20006.0,2001,Office,Office,374766.0,264000.0,59,76.4,76.4,239.9,239.9,2237.4,8.5,4412.4,5911160.7,,38.90162853,-77.04035649
906,PM3496074,0036_1010,1250 23rd Street,2017,Data Under Review by DOEE,1230 - 1250 23RD ST NW,1230-1250 23RD ST CONDOMINIUM,2.0,WASHINGTON,DC,20037.0,1989,Office,Office,190287.0,128571.0,20,86.0,87.1,240.9,243.9,1120.6,8.7,6343.1,3241758.6,,38.90659629,-77.05048805
907,PM3514246,1188_0118,Waterfront,2017,In Compliance,1010 - 1014 WISCONSIN AV NW,WATERFRONT CENTER LP,2.0,WASHINGTON,DC,20007.0,1985,Office,Office,320940.0,207863.0,62,77.8,82.4,241.4,255.8,1777.5,8.6,6749.5,4656224.1,2853.629361,38.903082700000006,-77.06295205
913,PM3500628,0319_0822,Gaslight Building,2017,In Compliance,1100 H ST NW,1100 H STREET LLC,2.0,WASHINGTON,DC,20005.0,1942,Office,Office,146986.0,146986.0,49,89.2,91.4,247.3,249.5,1321.0,9.0,1836.5,3166454.3,23070.447509999998,38.89953163,-77.02738352
914,PM4378204,0062_0020,American Pharmacist Association,2017,In Compliance,2215 CONSTITUTION AVE NW,AMERICAN PHARMACISTS ASSOCIATION,2.0,WASHINGTON,DC,20437.0,1934,Office,Office,368289.0,260252.0,89,81.0,82.0,247.9,249.8,2291.9,8.8,13815.6,5942922.5,7997.82438,38.89312347,-77.04946639
915,PM1146829,0377_0044,Jemal's Atlantic,2017,In Compliance,950 F ST NW,JEMAL'S ATLANTIC LLC,2.0,WASHINGTON,DC,20004.0,2006,Office,Office,297109.0,270818.0,62,79.7,79.7,250.3,250.3,2394.4,8.8,5508.1,6326121.7,,38.89715142,-77.02527118
916,PM2590129,1190_0078,1000 Thomas Jefferson Street NW,2017,In Compliance,1000 THOMAS JEFFERSON ST NW,1000 JEFFERSON ASSOCIATES,2.0,WASHINGTON,DC,20007.0,1981,Office,Office,207744.0,154807.0,64,79.8,79.8,250.5,250.5,1370.2,8.9,4708.4,3620100.7,,38.90285148,-77.0606233
917,PM3274029,0319_0864,700 Eleventh Street w/ Cosi,2017,In Compliance,0700 - 1111 11TH ST NW,1991 ACQUISITION FUND ONE,2.0,WASHINGTON,DC,20005.0,1991,Office,Office,457926.0,347864.0,64,80.7,80.7,250.7,250.7,3088.3,8.9,5893.1,8100002.2,4225.722970000001,38.89874863,-77.02732212
918,PM3353545,0387_0871,L Enfant Plaza - NORTH,2017,In Compliance,0400  10TH ST SW,POTOMAC REEK ASSOCIATES LP,6.0,WASHINGTON,DC,20024.0,1968,Office,Office,276288.0,326513.0,62,99.6,104.0,252.7,257.3,3065.1,9.4,4354.2,6780310.2,93909.00382,38.88466719,-77.02436653
919,PM3669102,0081_0829,515 22nd Street N.W.,2017,In Compliance,0515 22ND ST NW,515 22ND STREET LIMITED PARTNERSHIP,2.0,WASHINGTON,DC,20037.0,1941,Office,Office,108229.0,102080.0,38,87.1,88.5,253.1,254.5,928.8,9.1,1093.3,2313012.6,10041.78733,38.89685803,-77.04848220000001
920,PM3603031,0493_0808,FCP-400,2017,In Compliance,0400 C ST SW,FEDERAL CENTER OFFICE ASSOCIATES LLC,6.0,WASHINGTON,DC,20547.0,1982,Office,Office,505175.0,422684.0,53,80.8,80.8,253.6,253.6,3786.8,9.0,11389.6,10004949.2,,38.88583271,-77.01790347
923,PM2728715,0568_0043,Communications  Workers of America Building,2017,In Compliance,501 3RD ST NW,COMMUNICATIONS WORKERS OF AMERICA,2.0,WASHINGTON,DC,20001.0,1990,Office,Office,396741.0,217705.0,51,81.1,83.4,254.7,261.7,1958.9,9.0,43.5,5175365.8,,38.89656709,-77.0147821
930,PM3048099,0537_0812,Patriots Plaza II - 2261 (EPL),2017,In Compliance,375 E ST SW,RIGGS BANK N.A. TRUSTEE,6.0,WASHINGTON,DC,20024.0,2003,Office,Office,484047.0,336246.0,77,81.7,81.4,256.6,255.5,3048.0,9.1,5517.1,8052801.3,,38.88405122,-77.01691682
931,PM1417487,0288_0058,Herald Square - 1250 H Street N.W.,2017,In Compliance,0733  13TH ST NW,HUB PROPERTIES TRUST,2.0,WASHINGTON,DC,20005.0,1991,Office,Office,246351.0,209728.0,57,81.8,81.8,256.9,256.9,1903.5,9.1,3832.8,5029032.6,,38.89956769,-77.02910814
